{"2010 Dundas St W , Toronto - South, Ontario": {"name": "Shell", "type_A": 117.9, "type_B": 129.9, "type_C": 136.9, "type_D": 122.9, "address": "2010 Dundas St W, Toronto, ON M6R 1W6, Canada", "longitude": -79.4462271, "latitude": 43.6519243}, "Taymall Ave , Toronto - West, Ontario": {"name": "Costco", "type_A": 110.9, "type_C": 122.9, "address": "Taymall Ave, Etobicoke, ON M8Z, Canada", "longitude": -79.50661629999999, "latitude": 43.6238871}, "2580 St Clair Ave W , Toronto - Central, Ontario": {"name": "Race Trac", "type_A": 114.2, "type_C": 128.8, "type_D": 117.9, "address": "2580 St Clair Ave W, York, ON M6N 1L9, Canada", "longitude": -79.49000749999999, "latitude": 43.6676631}, "875 The Queensway , Toronto - West, Ontario": {"name": "XTR", "type_A": 115.3, "type_B": 123.6, "type_C": 129.9, "address": "875 The Queensway, Etobicoke, ON M8Z 1N8, Canada", "longitude": -79.5108599, "latitude": 43.6241661}, "25 Photography Dr , Toronto - West, Ontario": {"name": "No Frills", "type_A": 115.9, "address": "25 Photography Dr, North York, ON M6M 0A1, Canada", "longitude": -79.4839293, "latitude": 43.686812}, "3466 Dundas St W , Toronto - Central, Ontario": {"name": "Petro V Plus", "type_A": 116.4, "address": "3466 Dundas St W, Toronto, ON M6S, Canada", "longitude": -79.4875088, "latitude": 43.666204}, "1525 Eglinton Ave W , Toronto - Central, Ontario": {"name": "Petro V Plus", "type_A": 116.5, "type_B": 126.5, "type_C": 133.5, "type_D": 116.5, "address": "1525 Eglinton Ave W, Toronto, ON M6C, Canada", "longitude": -79.4351898, "latitude": 43.6990529}, "637 Vaughan Rd , Toronto - Central, Ontario": {"name": "Ultramar", "type_A": 116.9, "type_B": 131.9, "type_C": 134.9, "type_D": 116.9, "address": "637 Vaughan Rd, Toronto, ON M6E, Canada", "longitude": -79.4408167, "latitude": 43.69263489999999}, "260 Vaughan Rd , Toronto - Central, Ontario": {"name": "Econo Gas Station", "type_A": 116.9, "address": "260 Vaughan Rd, Toronto, ON M6C, Canada", "longitude": -79.42603609999999, "latitude": 43.6884187}, "980 Islington Ave , Toronto - West, Ontario": {"name": "7-Eleven", "type_A": 117.0, "address": "980 Islington Ave, Etobicoke, ON M8Z, Canada", "longitude": -79.5171194, "latitude": 43.629306}, "1000 The Queensway , Toronto - West, Ontario": {"name": "Esso", "type_A": 117.6, "type_B": 135.9, "type_C": 141.9, "address": "1000 The Queensway, Etobicoke, ON M8Z 1P6, Canada", "longitude": -79.5153431, "latitude": 43.623835}, "727 Kipling Ave , Toronto - West, Ontario": {"name": "Global", "type_A": 117.7, "type_B": 128.9, "type_C": 138.9, "type_D": 117.9, "address": "727 Kipling Ave, Toronto, ON M8Z 5G4, Canada", "longitude": -79.5282654, "latitude": 43.6261271}, "1585 Bathurst St , Toronto - Central, Ontario": {"name": "Shell", "type_A": 117.9, "address": "1585 Bathurst St, Toronto, ON M5P 3H8, Canada", "longitude": -79.4199641, "latitude": 43.6879698}, "1292 Dupont St , Toronto - Central, Ontario": {"name": "Shell", "type_A": 117.9, "type_B": 128.9, "type_C": 134.9, "type_D": 122.9, "address": "1292 Dupont St, Toronto, ON M6H 2A4, Canada", "longitude": -79.4440468, "latitude": 43.6676469}, "1762 Dundas St W , Toronto - South, Ontario": {"name": "Ultramar", "type_A": 117.9, "address": "1762 Dundas St W, Toronto, ON M6K 1V6, Canada", "longitude": -79.44031749999999, "latitude": 43.650461}, "835 Yonge St , Toronto - Central, Ontario": {"name": "Canadian Tire", "type_A": 119.3, "type_B": 132.9, "type_C": 137.9, "type_D": 114.9, "address": "835 Yonge St, Toronto, ON M4W 2H2, Canada", "longitude": -79.38755979999999, "latitude": 43.6731387}, "481 Rogers Rd , Toronto - Central, Ontario": {"name": "Husky", "type_A": 119.7, "type_C": 137.9, "address": "481 Rogers Rd, York, ON M6M 1B2, Canada", "longitude": -79.4672058, "latitude": 43.6817349}, "879 Kipling Ave , Toronto - West, Ontario": {"name": "Husky", "type_A": 119.9, "type_D": 118.7, "address": "879 Kipling Ave, Etobicoke, ON M8Z 5H2, Canada", "longitude": -79.532484, "latitude": 43.6358926}, "840 Dupont St , Toronto - Central, Ontario": {"name": "Pioneer", "type_A": 120.6, "type_B": 123.4, "type_C": 130.9, "address": "840 Dupont St, Toronto, ON M6G 1Z8, Canada", "longitude": -79.4275737, "latitude": 43.6709778}, "66 Trethewey Dr , Toronto - Central, Ontario": {"name": "Esso", "type_A": 120.9, "address": "66 Trethewey Dr, Toronto, ON M6M, Canada", "longitude": -79.4784979, "latitude": 43.6932546}, "751 Kipling Ave , Toronto - West, Ontario": {"name": "Esso", "type_A": 120.9, "address": "751 Kipling Ave, Etobicoke, ON M8Z 5G6, Canada", "longitude": -79.5289154, "latitude": 43.6278421}, "873 Queen St W , Toronto - South, Ontario": {"name": "7-Eleven", "type_A": 120.9, "type_B": 128.9, "type_C": 135.9, "address": "873 Queen St W, Toronto, ON M6J 1G4, Canada", "longitude": -79.41092619999999, "latitude": 43.6455821}, "537 Keele St , Toronto - Central, Ontario": {"name": "Esso", "type_A": 121.9, "address": "537 Keele St, Toronto, ON M6N 3E4, Canada", "longitude": -79.46637059999999, "latitude": 43.6701984}, "3449 Dundas St W , Toronto - Central, Ontario": {"name": "Esso", "type_A": 121.9, "address": "3449 Dundas St W, York, ON M6S 2S5, Canada", "longitude": -79.4866028, "latitude": 43.6653771}, "241 Church St , Toronto - South, Ontario": {"name": "Esso", "type_A": 122.9, "type_B": 135.9, "type_C": 141.9, "address": "241 Church St, Toronto, ON M5B 1Z4, Canada", "longitude": -79.3768546, "latitude": 43.6567305}, "1110 Bathurst St , Toronto - Central, Ontario": {"name": "Esso", "type_A": 122.9, "type_B": 126.9, "type_C": 132.9, "address": "1110 Bathurst St, Toronto, ON M5R 3H2, Canada", "longitude": -79.41471059999999, "latitude": 43.673404}, "2189 Lake Shore Blvd W , Toronto - West, Ontario": {"name": "Esso", "type_A": 122.9, "type_B": 135.9, "type_C": 141.9, "address": "2189 Lake Shore Blvd W, Etobicoke, ON M8V 1A1, Canada", "longitude": -79.4805607, "latitude": 43.6231352}, "436 Kipling Ave , Toronto - West, Ontario": {"name": "Esso", "type_A": 122.9, "type_B": 133.9, "type_C": 139.9, "type_D": 129.9, "address": "436 Kipling Ave, Etobicoke, ON M8Z 5C9, Canada", "longitude": -79.5207743, "latitude": 43.6068998}, "581 Kipling Ave , Toronto - West, Ontario": {"name": "Petro-Canada", "type_A": 122.9, "type_B": 135.9, "type_C": 141.9, "type_D": 120.9, "address": "581 Kipling Ave, Etobicoke, ON M8Z 5E7, Canada", "longitude": -79.5237697, "latitude": 43.6154336}, "680 The Queensway , Toronto - West, Ontario": {"name": "Shell", "type_A": 122.9, "type_B": 136.9, "type_C": 144.9, "type_D": 118.9, "address": "680 The Queensway, Toronto, ON M8Y 1K9, Canada", "longitude": -79.4990049, "latitude": 43.6273769}, "250 The Queensway , Toronto - West, Ontario": {"name": "Esso", "type_A": 122.9, "type_B": 135.9, "type_C": 141.9, "type_D": 119.9, "address": "250 The Queensway, Etobicoke, ON M8Y 1J4, Canada", "longitude": -79.4873214, "latitude": 43.6299563}, "90 The Queensway , Toronto - South, Ontario": {"name": "Petro-Canada", "type_A": 122.9, "type_B": 135.9, "type_C": 141.9, "address": "90 The Queensway, Toronto, ON M6S 1A5, Canada", "longitude": -79.4715068, "latitude": 43.6371769}, "8 South Kingsway , Toronto - South, Ontario": {"name": "Petro-Canada", "type_A": 122.9, "type_B": 135.9, "type_C": 141.9, "address": "8 S Kingsway, Toronto, ON M6S 3T2, Canada", "longitude": -79.47532060000002, "latitude": 43.6368196}, "553 Lake Shore Blvd W , Toronto - South, Ontario": {"name": "Esso", "type_A": 122.9, "type_B": 135.9, "type_C": 141.9, "type_D": 119.9, "address": "553 Lake Shore Blvd W, Toronto, ON M5V 1A6, Canada", "longitude": -79.39970129999999, "latitude": 43.6362608}, "38 Spadina Ave , Toronto - South, Ontario": {"name": "Shell", "type_A": 122.9, "type_B": 136.9, "type_C": 144.9, "address": "38 Spadina Ave, Toronto, ON M5V 2H8, Canada", "longitude": -79.3948664, "latitude": 43.6441775}, "55 Spadina Ave , Toronto - South, Ontario": {"name": "Petro-Canada", "type_A": 122.9, "type_B": 135.9, "type_C": 141.9, "type_D": 119.9, "address": "55 Spadina Ave, Toronto, ON M5V 2J2, Canada", "longitude": -79.3942979, "latitude": 43.6447622}, "1077 Yonge St , Toronto - Central, Ontario": {"name": "Shell", "type_A": 122.9, "type_B": 131.9, "type_C": 144.9, "type_D": 120.9, "address": "1077 Yonge St, Toronto, ON M4W 2L5, Canada", "longitude": -79.39023209999999, "latitude": 43.6793757}, "850 Roselawn Ave , Toronto - Central, Ontario": {"name": "Shell", "type_A": 122.9, "address": "850 Roselawn Ave, Toronto, ON M6B, Canada", "longitude": -79.4411272, "latitude": 43.7022239}, "4758 Dundas St W , Toronto - West, Ontario": {"name": "Shell", "type_A": 122.9, "address": "4758 Dundas St W, Toronto, ON M9A 1A9, Canada", "longitude": -79.5263111, "latitude": 43.6518963}, "4230 Dundas St W , Toronto - West, Ontario": {"name": "Petro-Canada", "type_A": 122.9, "address": "4230 Dundas St W, Etobicoke, ON M8X 1Y6, Canada", "longitude": -79.5127608, "latitude": 43.6601603}, "1750 Bloor St W , Toronto - Central, Ontario": {"name": "Petro-Canada", "type_A": 122.9, "type_B": 135.9, "type_C": 141.9, "type_D": 120.9, "address": "1750 Bloor St W, Toronto, ON M6P 1B3, Canada", "longitude": -79.4597419, "latitude": 43.6549591}, "2799 Lake Shore Blvd W , Toronto - West, Ontario": {"name": "Shell", "type_A": 122.9, "address": "2799 Lake Shore Blvd W, Etobicoke, ON M8V 1H4, Canada", "longitude": -79.5006317, "latitude": 43.6016099}, " 1610 Keele St , Toronto - Central, Ontario": {"name": "Shell", "type_A": 122.9, "type_B": 136.9, "type_C": 144.9, "address": "1610 Keele St, York, ON M6M 3V9, Canada", "longitude": -79.4719879, "latitude": 43.6823199}, "952 King St W , Toronto - South, Ontario": {"name": "Esso", "type_A": 122.9, "type_B": 134.9, "type_C": 140.9, "address": "952 King St W, Toronto, ON M6K 1E4, Canada", "longitude": -79.4123626, "latitude": 43.6421894}, "2485 Bloor St W , Toronto - Central, Ontario": {"name": "Esso", "type_A": 122.9, "address": "2485 Bloor St W, Toronto, ON M6S 1P7, Canada", "longitude": -79.4851436, "latitude": 43.6485388}, "5286 Dundas St W , Toronto - West, Ontario": {"name": "Shell", "type_A": 122.9, "address": "5286 Dundas St W, Etobicoke, ON M9B 1B2, Canada", "longitude": -79.53942010000002, "latitude": 43.63727430000001}, "150 Dupont St , Toronto - Central, Ontario": {"name": "Esso", "type_A": 122.9, "address": "150 Dupont St, Toronto, ON M5R 2E6, Canada", "longitude": -79.4032409, "latitude": 43.67594889999999}, "385 Weston Rd , Toronto - Central, Ontario": {"name": "Petro-Canada", "type_A": 122.9, "address": "385 Weston Rd, York, ON M6N 3P7, Canada", "longitude": -79.4756359, "latitude": 43.6809005}, "403 Keele St , Toronto - Central, Ontario": {"name": "Canadian Tire", "type_A": 122.9, "type_B": 132.9, "type_C": 137.9, "type_D": 119.7, "address": "403 Keele St, Toronto, ON M6P 2K9, Canada", "longitude": -79.46453699999999, "latitude": 43.6663409}, "2317 St Clair Ave W , Toronto - Central, Ontario": {"name": "Pioneer", "type_B": 122.4, "type_C": 129.9, "type_D": 117.9, "address": "2317 St Clair Ave W, Toronto, ON M6N 1K9, Canada", "longitude": -79.47888309999999, "latitude": 43.669763}, "1612 The Queensway , Toronto - West, Ontario": {"name": "Canadian Tire", "type_B": 127.9, "type_C": 132.9, "type_A": 117.9, "address": "1612 The Queensway, Etobicoke, ON M8Z 1V1, Canada", "longitude": -79.54466699999999, "latitude": 43.6171155}, "540 Evans Ave , Toronto - West, Ontario": {"name": "Esso", "type_B": 131.9, "type_C": 140.9, "type_D": 123.9, "type_A": 120.9, "address": "540 Evans Ave, Etobicoke, ON M8W 2V4, Canada", "longitude": -79.54254829999999, "latitude": 43.6125462}, "861 Avenue Rd , Toronto - Central, Ontario": {"name": "Husky", "type_B": 131.9, "type_C": 134.9, "type_A": 121.2, "address": "861 Avenue Rd, Toronto, ON M5P 2K4, Canada", "longitude": -79.4055606, "latitude": 43.6983401}, "689 Lawrence Ave W , Toronto - Central, Ontario": {"name": "Husky", "type_B": 132.6, "type_C": 139.9, "type_A": 122.6, "address": "689 Lawrence Ave W, Toronto, ON M6A, Canada", "longitude": -79.44569109999999, "latitude": 43.7155029}, "1640 The Queensway , Toronto - West, Ontario": {"name": "Petro-Canada", "type_B": 132.9, "type_C": 138.9, "type_D": 122.9, "type_A": 122.8, "address": "1640 The Queensway, Etobicoke, ON M8Z 1V1, Canada", "longitude": -79.5459161, "latitude": 43.6168869}, "866 Avenue Rd , Toronto - Central, Ontario": {"name": "Esso", "type_B": 133.9, "type_C": 139.9, "type_A": 120.8, "address": "866 Avenue Rd, Toronto, ON M5P 2K3, Canada", "longitude": -79.4062593, "latitude": 43.6985016}, "3069 Bathurst St , Toronto - Central, Ontario": {"name": "Esso", "type_B": 133.9, "type_D": 119.9, "type_A": 122.9, "type_C": 139.9, "address": "3069 Bathurst St, Toronto, ON M6B 3B7, Canada", "longitude": -79.4292752, "latitude": 43.71918549999999}, "613 Evans Ave , Toronto - West, Ontario": {"name": "Petro-Canada", "type_B": 134.9, "type_C": 140.9, "type_D": 122.9, "type_A": 121.9, "address": "613 Evans Ave, Etobicoke, ON M8W 2W5, Canada", "longitude": -79.54941409999999, "latitude": 43.6103231}, "2863 Dufferin St , Toronto - Central, Ontario": {"name": "Petro-Canada", "type_B": 134.9, "type_C": 140.9, "type_A": 122.9, "address": "2863 Dufferin St, North York, ON M6B 3S5, Canada", "longitude": -79.4530497, "latitude": 43.7073572}, "581 Parliament St , Toronto - South, Ontario": {"name": "Esso", "type_B": 135.9, "type_C": 141.9, "type_A": 122.9, "address": "581 Parliament St, Toronto, ON M4X 1P7, Canada", "longitude": -79.36878779999999, "latitude": 43.6670647}, "505 Jarvis St , Toronto - South, Ontario": {"name": "Petro-Canada", "type_B": 135.9, "type_C": 141.9, "type_D": 122.9, "type_A": 122.9, "address": "505 Jarvis St, Toronto, ON M4Y 2H7, Canada", "longitude": -79.3780812, "latitude": 43.6665255}, "435 Browns Line , Toronto - West, Ontario": {"name": "Shell", "type_B": 135.9, "type_D": 118.9, "type_A": 122.9, "type_C": 143.9, "address": "435 Brown's Line, Etobicoke, ON M8W 3V1, Canada", "longitude": -79.5450097, "latitude": 43.6022429}, "117 Jarvis St , Toronto - South, Ontario": {"name": "Petro-Canada", "type_B": 135.9, "type_C": 141.9, "type_A": 122.9, "address": "117 Jarvis St, Toronto, ON M5C 2H6, Canada", "longitude": -79.372186, "latitude": 43.6530198}, "176 Front St E , Toronto - South, Ontario": {"name": "Esso", "type_B": 135.9, "type_C": 143.9, "type_D": 110.9, "type_A": 122.9, "address": "176 Front St E, Toronto, ON M5A 1E6, Canada", "longitude": -79.36769389999999, "latitude": 43.6506374}, "695 Lawrence Ave W , Toronto - Central, Ontario": {"name": "Petro-Canada", "type_B": 135.9, "type_C": 141.9, "type_D": 122.9, "type_A": 122.6, "address": "695 Lawrence Ave W, North York, ON M6A 1B4, Canada", "longitude": -79.4468303, "latitude": 43.7152648}, "2 East Mall Cr , Toronto - West, Ontario": {"name": "Petro-Canada", "type_B": 135.9, "type_C": 141.9, "type_D": 122.9, "type_A": 121.9, "address": "2 The East Mall Crescent, Etobicoke, ON M9B 3Y6, Canada", "longitude": -79.55018799999999, "latitude": 43.630685}, "548 Richmond St E , Toronto - South, Ontario": {"name": "Shell", "type_B": 136.9, "type_C": 144.9, "type_A": 122.9, "address": "548 Richmond St E, Toronto, ON M5A 1R5, Canada", "longitude": -79.3638129, "latitude": 43.6548556}, "1587 Jane St , Toronto - Central, Ontario": {"name": "Petro V Plus", "type_C": 137.9, "type_A": 117.9, "address": "1587 Jane St, Toronto, ON M9N 2Y9, Canada", "longitude": -79.5027344, "latitude": 43.6998656}, "449 Carlaw Ave , Toronto - South, Ontario": {"name": "No Frills", "type_D": 113.9, "type_A": 117.9, "type_B": 123.9, "type_C": 130.9, "address": "449 Carlaw Ave, Toronto, ON M4K 3J1, Canada", "longitude": -79.3425072, "latitude": 43.6684208}, "2549 Weston Rd , Toronto - Central, Ontario": {"name": "Superstore", "type_D": 116.6, "type_B": 130.6, "type_C": 137.6, "type_A": 122.6, "address": "2549 Weston Rd, York, ON M9N 2A7, Canada", "longitude": -79.53342529999999, "latitude": 43.7096103}, "608 Wilson Ave , Toronto - North, Ontario": {"name": "Shell", "type_D": 117.9, "type_A": 122.9, "type_B": 136.9, "type_C": 144.9, "address": "608 Wilson Ave, North York, ON M3K 1C9, Canada", "longitude": -79.45853919999999, "latitude": 43.7324971}, "198 Browns Line , Toronto - West, Ontario": {"name": "Pioneer", "type_D": 118.6, "type_A": 119.9, "type_B": 134.9, "type_C": 142.9, "address": "198 Brown's Line, Etobicoke, ON M8W 3T3, Canada", "longitude": -79.54353449999999, "latitude": 43.5972405}, "3660 Dufferin St , Toronto - North, Ontario": {"name": "Husky", "type_D": 118.7, "type_A": 121.7, "type_B": 132.9, "type_C": 140.9, "address": "3660 Dufferin St, North York, ON M3K 1C9, Canada", "longitude": -79.45892119999999, "latitude": 43.7322686}, "2163 Dundas St E , Mississauga, Ontario": {"name": "Shell", "type_D": 118.9, "type_A": 116.9, "type_B": 129.9, "type_C": 137.9, "address": "2163 Dundas St E, Mississauga, ON L4X 1M3, Canada", "longitude": -79.56706419999999, "latitude": 43.6257724}, "1121 Broadview Ave , Toronto - Central, Ontario": {"name": "Ultramar", "type_D": 118.9, "type_A": 122.9, "address": "1121 Broadview Ave, East York, ON M4K 2S4, Canada", "longitude": -79.355684, "latitude": 43.686882}, "2881 Keele St , Toronto - North, Ontario": {"name": "Pioneer", "type_D": 119.6, "type_A": 121.4, "type_B": 130.9, "type_C": 138.4, "address": "2881 Keele St, North York, ON M3M 2G9, Canada", "longitude": -79.48337339999999, "latitude": 43.7334443}, "325 Horner Ave , Toronto - West, Ontario": {"name": "XTR", "type_D": 119.7, "type_A": 119.7, "address": "325 Horner Ave, Etobicoke, ON M8W 1Z5, Canada", "longitude": -79.52783459999999, "latitude": 43.60525690000001}, "829 Lake Shore Blvd E , Toronto - South, Ontario": {"name": "Esso", "type_D": 119.9, "type_A": 122.9, "type_B": 135.9, "type_C": 141.9, "address": "829 Lake Shore Blvd E, Toronto, ON M4M 1B2, Canada", "longitude": -79.3375203, "latitude": 43.65443150000001}, "1715 Bloor St E , Mississauga, Ontario": {"name": "Shell", "type_D": 119.9, "type_A": 117.9, "address": "1715 Bloor St, Mississauga, ON L4X 1S5, Canada", "longitude": -79.5876179, "latitude": 43.6236685}, "230 Lloyd Manor Rd , Toronto - West, Ontario": {"name": "Shell", "type_D": 119.9, "type_A": 122.9, "address": "230 Lloyd Manor Rd, Etobicoke, ON M9B 5K7, Canada", "longitude": -79.55783579999999, "latitude": 43.6752322}, "2699 Keele St , Toronto - North, Ontario": {"name": "Canadian Tire", "type_D": 120.5, "type_A": 122.9, "type_C": 137.9, "address": "2699 Keele St, North York, ON M3M 2E9, Canada", "longitude": -79.48172749999999, "latitude": 43.7256003}, "3639 Dufferin St , Toronto - North, Ontario": {"name": "Petro-Canada", "type_D": 122.9, "type_A": 123.3, "type_B": 136.9, "type_C": 142.9, "address": "3639 Dufferin St, North York, ON M3K, Canada", "longitude": -79.4581929, "latitude": 43.7318469}, "2747 Keele St , Toronto - North, Ontario": {"name": "Petro-Canada", "type_D": 122.9, "type_A": 122.9, "type_B": 135.9, "type_C": 141.9, "address": "2747 Keele St, North York, ON M3M 2E9, Canada", "longitude": -79.4815509, "latitude": 43.7263576}, "8 Thorncliffe Park Dr , Toronto - Central, Ontario": {"name": "Petro-Canada", "type_D": 122.9, "type_A": 122.9, "type_B": 135.9, "type_C": 141.9, "address": "8 Thorncliffe Park Dr, East York, ON M4H 1H4, Canada", "longitude": -79.3491104, "latitude": 43.7050248}, "759 Eastern Ave , Toronto - South, Ontario": {"name": "Amco", "type_D": 125.9, "type_A": 121.9, "type_C": 141.9, "address": "759 Eastern Ave, Toronto, ON M4M 1E9, Canada", "longitude": -79.3302064, "latitude": 43.6605341}, "929 Queen St E , Toronto - South, Ontario": {"name": "Leslieville Pumps", "type_A": 119.9, "type_B": 125.4, "type_C": 130.9, "address": "929 Queen St E, Toronto, ON M4M 1J6, Canada", "longitude": -79.34052659999999, "latitude": 43.6605746}, "3561 Danforth Ave , Toronto - East, Ontario": {"name": "Danforth Gas & Wash", "type_A": 112.9, "type_B": 123.9, "type_C": 130.9, "type_D": 116.9, "address": "3561 Danforth Ave, Scarborough, ON M1L 1E3, Canada", "longitude": -79.2736997, "latitude": 43.6943633}, "3180 Danforth Ave , Toronto - East, Ontario": {"name": "Star Gas", "type_A": 113.0, "type_C": 120.9, "address": "3180 Danforth Ave, Scarborough, ON M1L 1B4, Canada", "longitude": -79.2840775, "latitude": 43.6921749}, "600 Victoria Park Ave , Toronto - East, Ontario": {"name": "Mobil", "type_A": 113.9, "type_B": 121.9, "type_C": 128.9, "type_D": 116.9, "address": "600 Victoria Park Ave, Toronto, ON M4E 3T6, Canada", "longitude": -79.287357, "latitude": 43.6873125}, "2498 Gerrard St E , Toronto - East, Ontario": {"name": "Shell", "type_A": 113.9, "type_B": 126.9, "type_C": 134.9, "type_D": 117.9, "address": "2498 Gerrard St E, Toronto, ON M1N 1W8, Canada", "longitude": -79.2838548, "latitude": 43.6880225}, "2265 Danforth Ave , Toronto - Central, Ontario": {"name": "Petro-Canada", "type_A": 114.9, "address": "2265 Danforth Ave, Toronto, ON M4C 1K5, Canada", "longitude": -79.3081849, "latitude": 43.6865567}, "1161 Kingston Rd , Toronto - East, Ontario": {"name": "Top Valu", "type_A": 114.9, "address": "1161 Kingston Rd, Scarborough, ON M1N 1P2, Canada", "longitude": -79.2798504, "latitude": 43.6817365}, "995 Pape Ave , East York, Ontario": {"name": "Cocomile Service Centre", "type_A": 115.9, "address": "995 Pape Ave, East York, ON M4K 3V8, Canada", "longitude": -79.347831, "latitude": 43.6877611}, "995 Pape Ave , Toronto - Central, Ontario": {"name": "National Gas & Variety", "type_A": 115.9, "address": "995 Pape Ave, East York, ON M4K 3V8, Canada", "longitude": -79.347831, "latitude": 43.6877611}, "1471 O'Connor Dr , Toronto - Central, Ontario": {"name": "OP", "type_A": 116.5, "address": "1471 O'Connor Dr, East York, ON M4B 2V5, Canada", "longitude": -79.3062053, "latitude": 43.7134643}, "331 Sammon Ave , Toronto - Central, Ontario": {"name": "Global", "type_A": 117.9, "address": "331 Sammon Ave, Toronto, ON M4J 2X8, Canada", "longitude": -79.334344, "latitude": 43.686801}, "1052 Pape Ave , Toronto - Central, Ontario": {"name": "Eagle", "type_A": 118.9, "type_B": 128.9, "type_C": 134.9, "address": "1052 Pape Ave, Toronto, ON M4K, Canada", "longitude": -79.3493917, "latitude": 43.6902867}, "854 Pape Ave , Toronto - Central, Ontario": {"name": "Tonka Gas Bar", "type_A": 119.9, "address": "854 Pape Ave, East York, ON M4K 3T8, Canada", "longitude": -79.3467709, "latitude": 43.6840256}, "521 O'Connor Dr , Toronto - Central, Ontario": {"name": "Shell", "type_A": 122.9, "type_B": 135.9, "type_C": 141.9, "address": "521 O'Connor Dr, East York, ON M4J 2W9, Canada", "longitude": -79.3298246, "latitude": 43.6974957}, "561 O'Connor Dr , Toronto - Central, Ontario": {"name": "Esso", "type_A": 122.9, "type_B": 135.9, "type_C": 141.9, "address": "561 O'Connor Dr, East York, ON M4C 2Z7, Canada", "longitude": -79.329133, "latitude": 43.6976054}, "1195 Danforth Ave , Toronto - Central, Ontario": {"name": "Esso", "type_A": 122.9, "type_B": 126.9, "type_C": 132.9, "address": "1195 Danforth Ave, Toronto, ON M4J 1M7, Canada", "longitude": -79.33189519999999, "latitude": 43.6813414}, "3075 Danforth Ave , Toronto - East, Ontario": {"name": "Esso", "type_A": 122.9, "type_B": 135.9, "type_C": 141.9, "address": "3075 Danforth Ave, Scarborough, ON M1L 1A9, Canada", "longitude": -79.2866626, "latitude": 43.69145839999999}, "843 Don Mills Rd , Toronto - Central, Ontario": {"name": "Esso", "type_A": 122.9, "type_B": 135.9, "type_C": 141.9, "address": "843 Don Mills Rd, North York, ON M3C 1V4, Canada", "longitude": -79.3390044, "latitude": 43.72278439999999}, "2915 St Clair Ave E , Toronto - Central, Ontario": {"name": "Esso", "type_A": 122.9, "address": "2915 St Clair Ave E, East York, ON M4B 1N9, Canada", "longitude": -79.3003568, "latitude": 43.7079583}, "1800 Bayview Ave , Toronto - Central, Ontario": {"name": "Shell", "type_A": 122.9, "type_B": 136.9, "type_C": 144.9, "address": "1800 Bayview Ave, Toronto, ON M4G 3C6, Canada", "longitude": -79.3775935, "latitude": 43.7118036}, "1840 Bayview Ave , Toronto - Central, Ontario": {"name": "Esso", "type_A": 122.9, "type_B": 134.9, "type_C": 140.9, "address": "1840 Bayview Ave, East York, ON M4G 3E1, Canada", "longitude": -79.3775489, "latitude": 43.71366}, "705 Don Mills Rd , Toronto - Central, Ontario": {"name": "Shell", "type_A": 122.9, "address": "705 Don Mills Rd, Toronto, ON M3C 1S1, Canada", "longitude": -79.3336978, "latitude": 43.7096325}, "536 Mount Pleasant Rd , Toronto - Central, Ontario": {"name": "Petro-Canada", "type_A": 123.3, "address": "536 Mt Pleasant Rd, Toronto, ON M4S 2M2, Canada", "longitude": -79.388058, "latitude": 43.70218}, "381 Mount Pleasant Rd , Toronto - Central, Ontario": {"name": "Esso", "type_A": 123.9, "address": "381 Mt Pleasant Rd, Toronto, ON M4S 2L5, Canada", "longitude": -79.38620449999999, "latitude": 43.6985382}, "2 Upton Rd , Toronto - East, Ontario": {"name": "Esso", "type_B": 127.9, "type_C": 136.9, "type_D": 118.9, "type_A": 122.9, "address": "2 Upton Rd, Scarborough, ON M1L 2B8, Canada", "longitude": -79.28361869999999, "latitude": 43.7182428}, "3566 St Clair Ave E , Toronto - East, Ontario": {"name": "Esso", "type_B": 128.9, "type_A": 115.6, "type_C": 140.9, "address": "3566 St Clair Ave E, Scarborough, ON M1K 1M2, Canada", "longitude": -79.2590704, "latitude": 43.717329}, "577 Birchmount Rd , Toronto - East, Ontario": {"name": "Shell", "type_B": 131.9, "type_C": 140.9, "type_A": 122.9, "address": "577 Birchmount Rd, Scarborough, ON M1K 1P8, Canada", "longitude": -79.2705865, "latitude": 43.7139243}, "1723 Victoria Park Ave , Toronto - East, Ontario": {"name": "Esso", "type_B": 132.8, "type_C": 138.8, "type_D": 119.9, "type_A": 120.8, "address": "1723 Victoria Park Ave, Scarborough, ON M1R 1S1, Canada", "longitude": -79.3071255, "latitude": 43.73667529999999}, "1309 Lawrence Ave E , Toronto - Central, Ontario": {"name": "Esso", "type_B": 135.9, "type_C": 141.9, "type_D": 120.9, "type_A": 122.9, "address": "1309 Lawrence Ave E, North York, ON M3A 1C6, Canada", "longitude": -79.324077, "latitude": 43.7404374}, "1345 Lawrence Ave E , Toronto - Central, Ontario": {"name": "Petro-Canada", "type_B": 135.9, "type_C": 141.9, "type_D": 120.9, "type_A": 122.9, "address": "1345 Lawrence Ave E, North York, ON M3A 1C6, Canada", "longitude": -79.3196736, "latitude": 43.74071240000001}, "1896 Eglinton Ave E , Toronto - East, Ontario": {"name": "Petro-Canada", "type_B": 135.9, "type_C": 141.9, "type_A": 122.9, "address": "1896 Eglinton Ave E, Scarborough, ON M1L 2L9, Canada", "longitude": -79.2968635, "latitude": 43.7263483}, "2314 Kingston Rd , Toronto - East, Ontario": {"name": "Jim's Gas", "type_C": 136.9, "type_D": 118.9, "type_A": 119.9, "address": "2314 Kingston Rd, Scarborough, ON M1N 1T9, Canada", "longitude": -79.25173819999999, "latitude": 43.7062659}, "2601 Eglinton Ave E , Toronto - East, Ontario": {"name": "Canadian Tire", "type_D": 114.9, "type_C": 137.9, "type_A": 113.9, "address": "2601 Eglinton Ave E, Scarborough, ON M1K 2S1, Canada", "longitude": -79.253496, "latitude": 43.73525}, "2610 Eglinton Ave E , Toronto - East, Ontario": {"name": "Ultramar", "type_D": 114.9, "type_B": 128.1, "type_A": 122.9, "address": "2610 Eglinton Ave E, Scarborough, ON M1K, Canada", "longitude": -79.25204719999999, "latitude": 43.7358637}, "2875 Eglinton Ave E , Toronto - East, Ontario": {"name": "Esso", "type_D": 115.9, "type_B": 126.6, "type_C": 132.6, "type_A": 122.9, "address": "2875 Eglinton Ave E, Scarborough, ON M1J, Canada", "longitude": -79.24045939999999, "latitude": 43.7383827}, "3220 Kingston Rd , Toronto - East, Ontario": {"name": "Ultramar", "type_D": 116.9, "type_B": 128.1, "type_A": 114.1, "type_C": 131.1, "address": "3220 Kingston Rd, Scarborough, ON M1M 1P4, Canada", "longitude": -79.22656719999999, "latitude": 43.7310401}, "4630 Yonge St , Toronto - North, Ontario": {"name": "Petro-Canada", "type_D": 119.9, "type_A": 122.9, "type_B": 135.9, "type_C": 141.9, "address": "4630 Yonge St, North York, ON M2N 5L7, Canada", "longitude": -79.4099732, "latitude": 43.75732610000001}, "933 Warden Ave , Toronto - East, Ontario": {"name": "Tru Value", "type_D": 119.9, "type_A": 119.9, "address": "933 Warden Ave, Scarborough, ON M1L 4C5, Canada", "longitude": -79.2889986, "latitude": 43.7321176}, "4021 Yonge St , Toronto - Central, Ontario": {"name": "Shell", "type_D": 120.9, "type_A": 122.9, "type_B": 134.9, "type_C": 142.9, "address": "4021 Yonge St, Toronto, ON M2P 1N6, Canada", "longitude": -79.4059934, "latitude": 43.7438391}, "800 York Mills Rd , Toronto - Central, Ontario": {"name": "Petro-Canada", "type_D": 122.9, "type_B": 135.9, "type_C": 141.9, "type_A": 122.9, "address": "800 York Mills Rd, North York, ON M3B 1X9, Canada", "longitude": -79.3594997, "latitude": 43.7534475}, "1039 Danforth Rd , Toronto - East, Ontario": {"name": "Esso", "type_D": 124.9, "type_B": 132.9, "type_C": 141.9, "type_A": 122.9, "address": "1039 Danforth Rd, Scarborough, ON M1K 1J8, Canada", "longitude": -79.2474344, "latitude": 43.73455980000001}, "3587 Bathurst St , Toronto - Central, Ontario": {"name": "7-Eleven", "type_A": 122.6, "address": "3587 Bathurst St, North York, ON M6A 2E2, Canada", "longitude": -79.4323306, "latitude": 43.7325731}, "3075 Bathurst St , Toronto - Central, Ontario": {"name": "Shell", "type_A": 122.9, "address": "3075 Bathurst St, North York, ON M6A 1Z9, Canada", "longitude": -79.42951550000001, "latitude": 43.7195984}, "3321 Dufferin St , Toronto - Central, Ontario": {"name": "Esso", "type_A": 122.9, "type_B": 135.9, "type_C": 141.9, "address": "3321 Dufferin St, North York, ON M6A 2T8, Canada", "longitude": -79.4562662, "latitude": 43.7228536}, "3070 Dufferin St , Toronto - Central, Ontario": {"name": "Shell", "type_A": 122.9, "address": "3070 Dufferin St, North York, ON M6A 1C3, Canada", "longitude": -79.45537279999999, "latitude": 43.7143709}, "1500 Wilson Ave , Toronto - North, Ontario": {"name": "Petroleum Plus", "type_A": 119.9, "address": "1500 Wilson Ave, Toronto, ON M3M, Canada", "longitude": -79.5062545, "latitude": 43.7212448}, "1539 Jane St , Toronto - Central, Ontario": {"name": "Fas Gas", "type_A": 121.9, "address": "1539 Jane St, North York, ON M9N 2R3, Canada", "longitude": -79.5021836, "latitude": 43.69799099999999}, "453 Wilson Ave , Toronto - North, Ontario": {"name": "XTR", "type_A": 121.9, "address": "453 Wilson Ave, North York, ON M3H 1T9, Canada", "longitude": -79.44200169999999, "latitude": 43.7353506}, "3330 Keele St , Toronto - North, Ontario": {"name": "Shell", "type_A": 122.9, "address": "3330 Keele St, Toronto, ON M3J 1L5, Canada", "longitude": -79.4868838, "latitude": 43.7450123}, "3750 Bathurst St , Toronto - North, Ontario": {"name": "Esso", "type_A": 122.9, "type_B": 135.9, "type_C": 141.9, "address": "3750 Bathurst St, Toronto, ON M3H, Canada", "longitude": -79.43406399999999, "latitude": 43.7373062}, "1865 Avenue Rd , Toronto - Central, Ontario": {"name": "Esso", "type_A": 122.9, "type_B": 135.9, "type_C": 141.9, "address": "1865 Avenue Rd, North York, ON M5M 3Z7, Canada", "longitude": -79.4189865, "latitude": 43.731997}, "1974 Avenue Rd , Toronto - Central, Ontario": {"name": "Shell", "type_A": 122.9, "type_B": 135.9, "type_C": 143.9, "address": "1974 Avenue Rd, Toronto, ON M5M 4A1, Canada", "longitude": -79.420149, "latitude": 43.7346502}, "4722 Yonge St , Toronto - North, Ontario": {"name": "Shell", "type_A": 122.9, "type_B": 136.9, "type_C": 144.9, "type_D": 120.9, "address": "4722 Yonge St, Toronto, ON M2N 5M4, Canada", "longitude": -79.41076269999999, "latitude": 43.7596642}, "4696 Yonge St , Toronto - North, Ontario": {"name": "Esso", "type_A": 122.9, "type_B": 135.9, "type_C": 141.9, "type_D": 119.9, "address": "4696 Yonge St, North York, ON M2N 5M2, Canada", "longitude": -79.4105687, "latitude": 43.7585796}, "2205 Jane St , Toronto - North, Ontario": {"name": "Petro-Canada", "type_A": 122.9, "address": "2205 Jane St, North York, ON M3M 1A5, Canada", "longitude": -79.5084996, "latitude": 43.7226988}, "3720 Keele St , Toronto - North, Ontario": {"name": "Petro-Canada", "type_A": 122.9, "address": "3720 Keele St, North York, ON M3J 2V9, Canada", "longitude": -79.48992489999999, "latitude": 43.75709459999999}, "2012 Jane St , Toronto - Central, Ontario": {"name": "Petro-Canada", "type_A": 122.9, "address": "2012 Jane St, North York, ON M9N 2V1, Canada", "longitude": -79.50754669999999, "latitude": 43.7151481}, "901 Sheppard Ave W , Toronto - North, Ontario": {"name": "Petro-Canada", "type_A": 122.9, "address": "901 Sheppard Ave W, North York, ON M3H 2T7, Canada", "longitude": -79.4569078, "latitude": 43.7513234}, "908 Sheppard Ave W , Toronto - North, Ontario": {"name": "Shell", "type_A": 122.9, "address": "908 Sheppard Ave W, North York, ON M3H 2T6, Canada", "longitude": -79.45754339999999, "latitude": 43.7520013}, "909 Wilson Ave , Toronto - North, Ontario": {"name": "Shell", "type_A": 122.9, "type_B": 136.9, "type_C": 144.9, "address": "909 Wilson Ave, North York, ON M3K 1E6, Canada", "longitude": -79.4678399, "latitude": 43.7301656}, "4550 Dufferin St , Toronto - North, Ontario": {"name": "Esso", "type_A": 122.9, "type_B": 134.9, "type_C": 140.9, "type_D": 117.9, "address": "4550 Dufferin St, North York, ON M3H 5R9, Canada", "longitude": -79.4673632, "latitude": 43.7683792}, "4400 Dufferin St , Toronto - North, Ontario": {"name": "Canadian Tire", "type_A": 122.9, "address": "4400 Dufferin St, North York, ON M3H 4K7, Canada", "longitude": -79.46676459999999, "latitude": 43.7655473}, "4384 Bathurst St , Toronto - North, Ontario": {"name": "Petro-Canada", "type_A": 122.9, "address": "4384 Bathurst St, North York, ON M3H 3R6, Canada", "longitude": -79.4388999, "latitude": 43.7551289}, "1138 Sheppard Ave W , Toronto - North, Ontario": {"name": "Esso", "type_A": 122.9, "address": "1138 Sheppard Ave W, North York, ON M3K 2A2, Canada", "longitude": -79.467158, "latitude": 43.752349}, "1570 Wilson Ave , Toronto - North, Ontario": {"name": "Shell", "type_A": 123.9, "address": "1570 Wilson Ave, North York, ON M3L 1A3, Canada", "longitude": -79.50914089999999, "latitude": 43.7211914}, "2645 Steeles Ave W  , Toronto - North, Ontario": {"name": "Husky", "type_B": 127.9, "type_D": 123.9, "type_A": 118.9, "type_C": 134.9, "address": "2645 Steeles Ave W, North York, ON M3J 2S4, Canada", "longitude": -79.48647, "latitude": 43.78316299999999}, "4926 Bathurst St , Toronto - North, Ontario": {"name": "Shell", "type_B": 131.9, "type_C": 137.9, "type_A": 122.9, "address": "4926 Bathurst St, North York, ON M2R 1N2, Canada", "longitude": -79.4434493, "latitude": 43.7734661}, "3900 Jane St , Toronto - North, Ontario": {"name": "Petro-Canada", "type_B": 133.9, "type_C": 139.9, "type_D": 122.9, "type_A": 122.9, "address": "3900 Jane St, North York, ON M3N, Canada", "longitude": -79.5177552, "latitude": 43.75721}, "2831 Bayview Ave , Toronto - North, Ontario": {"name": "Shell", "type_B": 134.4, "type_C": 140.4, "type_D": 119.9, "type_A": 122.9, "address": "2831 Bayview Ave, North York, ON M2K 1E5, Canada", "longitude": -79.38745449999999, "latitude": 43.7663082}, "4000 Jane St , Toronto - North, Ontario": {"name": "Esso", "type_B": 134.9, "type_C": 140.9, "type_D": 119.9, "type_A": 122.9, "address": "4000 Jane St, North York, ON M3N 2K2, Canada", "longitude": -79.5184518, "latitude": 43.7577114}, "515 Drewry Ave , Toronto - North, Ontario": {"name": "Esso", "type_B": 134.9, "type_C": 140.9, "type_D": 119.9, "type_A": 122.9, "address": "515 Drewry Ave, North York, ON M2R 2K9, Canada", "longitude": -79.4441299, "latitude": 43.7807678}, "2669 Jane St , Toronto - North, Ontario": {"name": "Esso", "type_B": 135.9, "type_C": 141.9, "type_A": 122.9, "address": "2669 Jane St, North York, ON M3L 1S3, Canada", "longitude": -79.512, "latitude": 43.7400209}, "461 Sheppard Ave E , Toronto - North, Ontario": {"name": "Esso", "type_B": 135.9, "type_C": 141.9, "type_A": 122.9, "address": "461 Sheppard Ave E, North York, ON M2N 3B3, Canada", "longitude": -79.3884954, "latitude": 43.76625689999999}, "5571 Yonge St , Toronto - North, Ontario": {"name": "Esso", "type_B": 135.9, "type_C": 141.9, "type_A": 122.9, "address": "5571 Yonge St, North York, ON M2N 5S4, Canada", "longitude": -79.41496579999999, "latitude": 43.7789343}, "6000 Dufferin St , Toronto - North, Ontario": {"name": "Esso", "type_B": 135.9, "type_C": 141.9, "type_A": 122.9, "address": "6000 Dufferin St, North York, ON M3H 5T5, Canada", "longitude": -79.47058779999999, "latitude": 43.7864535}, "600 North Rivermede Rd  , Vaughan, Ontario": {"name": "Husky", "type_D": 113.7, "type_B": 127.9, "type_C": 134.9, "type_A": 122.6, "address": "600 N Rivermede Rd, Concord, ON L4K 3M9, Canada", "longitude": -79.483468, "latitude": 43.8062569}, "2200 Steeles Ave W , Toronto - North, Ontario": {"name": "Husky", "type_D": 113.7, "address": "2200 Steeles Ave W, Concord, ON L4K 2Y7, Canada", "longitude": -79.49397809999999, "latitude": 43.78209589999999}, "920 Albion Rd , Toronto - West, Ontario": {"name": "Top Valu", "type_D": 116.6, "type_B": 130.1, "type_C": 137.6, "type_A": 120.6, "address": "920 Albion Rd, Etobicoke, ON M9V 1A4, Canada", "longitude": -79.5608142, "latitude": 43.735414}, "2316 Finch Ave W , Toronto - North, Ontario": {"name": "Ultramar", "type_D": 116.9, "type_A": 119.4, "address": "2316 Finch Ave W, Toronto, ON M9M, Canada", "longitude": -79.5421313, "latitude": 43.7524536}, "2 Oakdale Rd , Toronto - North, Ontario": {"name": "Jiffy", "type_D": 119.3, "type_A": 119.9, "address": "2 Oakdale Rd, North York, ON M3N, Canada", "longitude": -79.5238116, "latitude": 43.7370459}, "7015 Yonge St , Toronto - North, Ontario": {"name": "Esso", "type_D": 119.9, "type_A": 122.9, "type_B": 135.9, "type_C": 141.9, "address": "7015 Yonge St, Thornhill, ON L3T 2A5, Canada", "longitude": -79.41971749999999, "latitude": 43.79851499999999}, "7011 Bathurst St , Toronto - North, Ontario": {"name": "Petro-Canada", "type_D": 119.9, "type_B": 135.9, "type_C": 141.9, "type_A": 122.9, "address": "7011 Bathurst St, Thornhill, ON L4J 2J6, Canada", "longitude": -79.4451759, "latitude": 43.7931494}, "3351 Bayview Ave  , Toronto - North, Ontario": {"name": "Petro-Canada", "type_D": 119.9, "type_A": 122.9, "type_B": 135.9, "type_C": 141.9, "address": "3351 Bayview Ave, North York, ON M2K 1G5, Canada", "longitude": -79.39310499999999, "latitude": 43.792896}, "1487 Centre St , Vaughan, Ontario": {"name": "Petro-Canada", "type_D": 122.9, "type_A": 122.9, "type_B": 135.9, "type_C": 141.9, "address": "1487 Centre St, Vaughan, ON L4J 3M7, Canada", "longitude": -79.4738299, "latitude": 43.8053458}, "2424 Eglinton Ave E , Toronto - East, Ontario": {"name": "Shell", "type_A": 115.9, "address": "2424 Eglinton Ave E, Toronto, ON M1K 2P3, Canada", "longitude": -79.2685297, "latitude": 43.732508}, "2372 Eglinton Ave E , Toronto - East, Ontario": {"name": "Eagle", "type_A": 118.9, "address": "2372 Eglinton Ave E, Scarborough, ON M1K 2P3, Canada", "longitude": -79.271141, "latitude": 43.7318851}, "1780 O'Connor Dr , Toronto - Central, Ontario": {"name": "Canadian Tire", "type_A": 119.1, "address": "1780 O'Connor Dr, North York, ON M4A 1W7, Canada", "longitude": -79.3048122, "latitude": 43.7196077}, "2495 Kingston Rd  , Toronto - East, Ontario": {"name": "Mid King", "type_A": 119.7, "type_C": 136.7, "address": "2495 Kingston Rd, Scarborough, ON M1N 1V4, Canada", "longitude": -79.2482297, "latitude": 43.7104411}, "747 Pharmacy Ave , Toronto - East, Ontario": {"name": "Fas Gas", "type_A": 121.9, "address": "747 Pharmacy Ave, Scarborough, ON M1L 3J7, Canada", "longitude": -79.29393379999999, "latitude": 43.7176781}, "1725 Eglinton Ave E , Toronto - Central, Ontario": {"name": "Esso", "type_A": 122.0, "address": "1725 Eglinton Ave E, North York, ON M4A 1J6, Canada", "longitude": -79.314088, "latitude": 43.7256344}, "1805 Victoria Park Ave , Toronto - East, Ontario": {"name": "Shell", "type_A": 122.9, "type_B": 136.9, "type_C": 144.9, "address": "1805 Victoria Park Ave, Scarborough, ON M1R 1T3, Canada", "longitude": -79.3096066, "latitude": 43.7425422}, "1095 Don Mills Rd , Toronto - Central, Ontario": {"name": "Petro-Canada", "type_A": 122.9, "address": "1095 Don Mills Rd, North York, ON M3C 1W7, Canada", "longitude": -79.3429642, "latitude": 43.7369786}, "800 Lawrence Ave E , Toronto - Central, Ontario": {"name": "Esso", "type_A": 122.9, "address": "800 Lawrence Ave E, North York, ON M3C 1P4, Canada", "longitude": -79.3555666, "latitude": 43.7349431}, "389 Birchmount Rd , Toronto - East, Ontario": {"name": "Global", "type_A": 123.9, "address": "389 Birchmount Rd, Scarborough, ON M1K 1N3, Canada", "longitude": -79.2659273, "latitude": 43.7026356}, "2370 Lawrence Ave E , Toronto - East, Ontario": {"name": "Esso", "type_B": 125.9, "type_C": 131.5, "type_A": 122.9, "address": "2370 Lawrence Ave E, Scarborough, ON M1P 2R5, Canada", "longitude": -79.2744306, "latitude": 43.7500477}, "2320 Lawrence Ave E , Toronto - East, Ontario": {"name": "Petro-Canada", "type_B": 128.9, "type_A": 122.9, "address": "2320 Lawrence Ave E, Scarborough, ON M1P 2P9, Canada", "longitude": -79.2755504, "latitude": 43.7498229}, "2611 Lawrence Ave E , Toronto - East, Ontario": {"name": "Esso", "type_B": 134.9, "type_C": 140.9, "type_A": 122.9, "address": "2611 Lawrence Ave E, Scarborough, ON M1P 2S2, Canada", "longitude": -79.2645201, "latitude": 43.7512886}, "1869 Leslie St , Toronto - Central, Ontario": {"name": "Esso", "type_B": 135.9, "type_A": 122.9, "type_C": 141.9, "address": "1869 Leslie St, North York, ON M3B 2M3, Canada", "longitude": -79.3600952, "latitude": 43.7555506}, "20 Ellesmere Rd , Toronto - East, Ontario": {"name": "Petro-Canada", "type_B": 135.9, "type_C": 141.9, "type_A": 122.9, "address": "20 Ellesmere Rd, Scarborough, ON M1R 4C1, Canada", "longitude": -79.3147352, "latitude": 43.7583265}, "3221 Kingston Rd , Toronto - East, Ontario": {"name": "Shell", "type_B": 136.9, "type_A": 122.9, "type_C": 144.9, "address": "3221 Kingston Rd, Scarborough, ON M1M 1P7, Canada", "longitude": -79.22575619999999, "latitude": 43.7305228}, "1411 Warden Ave , Toronto - East, Ontario": {"name": "Costco", "type_C": 122.9, "type_A": 110.9, "address": "1411 Warden Ave, Scarborough, ON M1R 2S3, Canada", "longitude": -79.2977358, "latitude": 43.7594291}, "3279 Kingston Rd , Toronto - East, Ontario": {"name": "Pioneer", "type_D": 114.9, "type_A": 114.1, "type_B": 124.3, "type_C": 131.8, "address": "3279 Kingston Rd, Scarborough, ON M1M 1P7, Canada", "longitude": -79.2247445, "latitude": 43.7313824}, "197 Bellamy Rd N , Toronto - East, Ontario": {"name": "Esso", "type_D": 114.9, "type_A": 115.5, "type_B": 128.5, "type_C": 134.5, "address": "197 Bellamy Rd N, Scarborough, ON M1J 2L3, Canada", "longitude": -79.2304686, "latitude": 43.7462881}, "3051 Lawrence Ave E  , Toronto - East, Ontario": {"name": "Shell", "type_D": 118.9, "type_A": 122.9, "address": "3051 Lawrence Ave E, Scarborough, ON M1P 2V8, Canada", "longitude": -79.2457676, "latitude": 43.7550787}, "1615 Ellesmere Rd , Toronto - East, Ontario": {"name": "Esso", "type_D": 119.9, "type_B": 135.9, "type_C": 141.9, "type_A": 122.9, "address": "1615 Ellesmere Rd, Toronto, ON M1P 2Y3, Canada", "longitude": -79.2518971, "latitude": 43.7717232}, "1977 Kennedy Rd , Toronto - East, Ontario": {"name": "Petro-Canada", "type_D": 119.9, "type_B": 135.9, "type_C": 141.9, "type_A": 122.9, "address": "1977 Kennedy Rd, Scarborough, ON M1P 2M1, Canada", "longitude": -79.282128, "latitude": 43.769821}, "1480 Kennedy Rd , Toronto - East, Ontario": {"name": "Esso", "type_D": 119.9, "type_B": 135.9, "type_C": 141.9, "type_A": 122.9, "address": "1480 Kennedy Rd, Scarborough, ON M1P 2L7, Canada", "longitude": -79.28155579999999, "latitude": 43.7653582}, "1575 Warden Ave  , Toronto - East, Ontario": {"name": "Shell", "type_D": 119.9, "type_A": 122.9, "type_B": 136.9, "type_C": 144.9, "address": "1575 Warden Ave, Toronto, ON M1R 2S9, Canada", "longitude": -79.3016715, "latitude": 43.76577390000001}, "3400 Sheppard Ave E , Toronto - East, Ontario": {"name": "Petro-Canada", "type_D": 121.9, "type_B": 135.9, "type_A": 122.9, "type_C": 141.9, "address": "3400 Sheppard Ave E, Scarborough, ON M1T 3K4, Canada", "longitude": -79.30750599999999, "latitude": 43.779347}, "1980 Lawrence Ave E , Toronto - East, Ontario": {"name": "Pioneer", "type_A": 116.9, "address": "1980 Lawrence Ave E, Scarborough, ON M1R 2Z1, Canada", "longitude": -79.2976097, "latitude": 43.7451426}, "2250 Victoria Park Ave , Toronto - East, Ontario": {"name": "Petro-Canada", "type_A": 122.9, "address": "2250 Victoria Park Ave, North York, ON M1R, Canada", "longitude": -79.31813319999999, "latitude": 43.76323860000001}, "2900 Finch Ave E , Toronto - East, Ontario": {"name": "Petro-Canada", "type_D": 119.9, "type_B": 135.9, "type_C": 141.9, "type_A": 122.9, "address": "2900 Finch Ave E, Scarborough, ON M1W 2T4, Canada", "longitude": -79.3309, "latitude": 43.793777}, "1125 Sheppard Ave E , Toronto - North, Ontario": {"name": "Amco", "type_A": 120.8, "type_B": 127.8, "type_C": 134.8, "address": "1125 Sheppard Ave E, North York, ON M2K, Canada", "longitude": -79.37059889999999, "latitude": 43.7700037}, "730 Sheppard Ave E , Toronto - North, Ontario": {"name": "Shell", "type_A": 122.9, "address": "730 Sheppard Ave E, Toronto, ON M2K 1C3, Canada", "longitude": -79.3763946, "latitude": 43.7695625}, "1015 Sheppard Ave E , Toronto - North, Ontario": {"name": "Canadian Tire", "type_A": 122.9, "type_C": 137.9, "address": "1015 Sheppard Ave E, Toronto, ON M2K 1C2, Canada", "longitude": -79.3727557, "latitude": 43.7695501}, "2500 Don Mills Rd , Toronto - North, Ontario": {"name": "Esso", "type_A": 122.9, "address": "2500 Don Mills Rd, North York, ON M2J 3B3, Canada", "longitude": -79.3478394, "latitude": 43.7754422}, "2125 Sheppard Ave E , Toronto - North, Ontario": {"name": "Petro-Canada", "type_A": 122.9, "address": "2125 Sheppard Ave E, North York, ON M2J 4X5, Canada", "longitude": -79.3325862, "latitude": 43.7752741}, "6015 Leslie St , Toronto - North, Ontario": {"name": "Esso", "type_A": 122.9, "type_B": 135.9, "type_C": 141.9, "address": "6015 Leslie St, North York, ON M2H 1J8, Canada", "longitude": -79.36972399999999, "latitude": 43.799307}, "4751 Leslie St , Toronto - North, Ontario": {"name": "Esso", "type_A": 122.9, "address": "4751 Leslie St, North York, ON M2J 2K8, Canada", "longitude": -79.36503189999999, "latitude": 43.778667}, "1500 Finch Ave E , Toronto - North, Ontario": {"name": "Esso", "type_A": 122.9, "address": "1500 Finch Ave E, North York, ON M2J 4Y6, Canada", "longitude": -79.3543255, "latitude": 43.7932031}, "3075 Don Mills Rd , Toronto - North, Ontario": {"name": "Petro-Canada", "type_A": 122.9, "address": "3075 Don Mills Rd, North York, ON M2J, Canada", "longitude": -79.3530959, "latitude": 43.7877728}, "6255 Bathurst St , Toronto - North, Ontario": {"name": "Esso", "type_B": 135.9, "type_C": 141.9, "type_A": 122.9, "address": "6255 Bathurst St, North York, ON M2R, Canada", "longitude": -79.44547949999999, "latitude": 43.79151090000001}, "274 Steeles Ave E , Toronto - North, Ontario": {"name": "Petro-Canada", "type_B": 135.9, "type_C": 141.9, "type_D": 119.9, "type_A": 122.9, "address": "274 Steeles Ave E, Thornhill, ON L3T 1A7, Canada", "longitude": -79.3957812, "latitude": 43.8037658}, "1505 Steeles Ave E , Toronto - North, Ontario": {"name": "Esso", "type_B": 135.9, "type_C": 141.9, "type_A": 122.9, "address": "1505 Steeles Ave E, North York, ON M2M 3Y7, Canada", "longitude": -79.3852191, "latitude": 43.8053144}, "7001 Woodbine Ave , Toronto - North, Ontario": {"name": "Esso", "type_D": 119.9, "type_A": 122.9, "type_B": 135.9, "type_C": 141.9, "address": "7001 Woodbine Ave, Markham, ON L3R 1A3, Canada", "longitude": -79.3482539, "latitude": 43.8145118}, "261 Dixon Rd  , Toronto - West, Ontario": {"name": "Esso", "type_B": 135.9, "type_C": 141.9, "type_A": 122.9, "address": "261 Dixon Rd, Etobicoke, ON M9P 2M4, Canada", "longitude": -79.54607360000001, "latitude": 43.69684729999999}, "1570 Dundas St E , Mississauga, Ontario": {"name": "Costco", "type_A": 110.9, "type_C": 122.9, "address": "1570 Dundas St E, Mississauga, ON L4X 1L4, Canada", "longitude": -79.57577619999999, "latitude": 43.6103044}, "1334 Dundas St E , Mississauga, Ontario": {"name": "Petro-Canada", "type_A": 116.5, "type_B": 129.9, "type_C": 135.9, "type_D": 120.9, "address": "1334 Dundas St E, Mississauga, ON L4Y 4G4, Canada", "longitude": -79.5846074, "latitude": 43.6076552}, "1202 Dundas St E , Mississauga, Ontario": {"name": "Canadian Tire", "type_A": 116.9, "address": "1202 Dundas St E, Mississauga, ON L4Y 2C1, Canada", "longitude": -79.588043, "latitude": 43.6048277}, "1417 Lakeshore Rd E , Mississauga, Ontario": {"name": "Race Trac", "type_A": 119.9, "address": "1417 Lakeshore Rd E, Mississauga, ON L5E 1G7, Canada", "longitude": -79.5497772, "latitude": 43.5858257}, "500 Browns Line , Toronto - West, Ontario": {"name": "Econo", "type_A": 121.9, "address": "500 Brown's Line, Etobicoke, ON M8W 3V2, Canada", "longitude": -79.54631599999999, "latitude": 43.603234}, "677 Burnhamthorpe Rd , Toronto - West, Ontario": {"name": "Shell", "type_A": 122.9, "address": "677 Burnhamthorpe Rd, Etobicoke, ON M9C 2Z5, Canada", "longitude": -79.5764179, "latitude": 43.6428613}, "1404 Dundas St E , Mississauga, Ontario": {"name": "Esso", "type_A": 122.9, "address": "1404 Dundas St E, Mississauga, ON L4X 1L4, Canada", "longitude": -79.5829298, "latitude": 43.6094096}, "999 North Service Rd , Mississauga, Ontario": {"name": "Husky", "type_A": 122.9, "type_D": 118.7, "address": "999 N Service Rd, Mississauga, ON L4Y 1A4, Canada", "longitude": -79.5774038, "latitude": 43.5897116}, "5470 Dundas St W , Toronto - West, Ontario": {"name": "Esso", "type_A": 122.9, "address": "5470 Dundas St W, Etobicoke, ON M9B 1B6, Canada", "longitude": -79.545143, "latitude": 43.63222649999999}, "5067 Dixie Rd , Mississauga, Ontario": {"name": "Canadian Tire", "type_B": 124.9, "type_C": 136.9, "type_D": 118.9, "type_A": 114.9, "address": "5067 Dixie Rd, Mississauga, ON L4W 5S6, Canada", "longitude": -79.6208213, "latitude": 43.6369476}, "354 Dundas St E , Mississauga, Ontario": {"name": "Shell", "type_B": 129.9, "type_C": 137.9, "type_D": 119.9, "type_A": 122.9, "address": "354 Dundas St E, Mississauga, ON L5A 1X2, Canada", "longitude": -79.6071194, "latitude": 43.5878448}, "5014 Dixie Rd , Mississauga, Ontario": {"name": "Esso", "type_B": 134.7, "type_C": 140.7, "type_D": 119.9, "type_A": 121.7, "address": "5014 Dixie Rd, Mississauga, ON L4W, Canada", "longitude": -79.6216474, "latitude": 43.6356784}, "830 Burnhamthorpe Rd , Toronto - West, Ontario": {"name": "Petro-Canada", "type_B": 135.9, "type_C": 141.9, "type_A": 122.9, "address": "830 Burnhamthorpe Rd, Etobicoke, ON M9C 2Z3, Canada", "longitude": -79.583756, "latitude": 43.6392072}, "5495 Eglinton Ave W , Toronto - West, Ontario": {"name": "Petro-Canada", "type_B": 135.9, "type_C": 141.9, "type_D": 120.9, "type_A": 122.9, "address": "5495 Eglinton Ave W, Etobicoke, ON M9C 5K5, Canada", "longitude": -79.6001335, "latitude": 43.6538985}, "365 Dixon Rd , Toronto - West, Ontario": {"name": "Petro-Canada", "type_C": 141.9, "address": "365 Dixon Rd, Etobicoke, ON M9R 1S1, Canada", "longitude": -79.5580463, "latitude": 43.69410939999999}, "3405 Dixie Rd , Mississauga, Ontario": {"name": "Husky", "type_D": 118.7, "type_A": 116.5, "address": "3405 Dixie Rd, Mississauga, ON L4Y 2A9, Canada", "longitude": -79.59463900000002, "latitude": 43.617272}, "1349 Burnhamthorpe Rd E , Mississauga, Ontario": {"name": "Shell", "type_D": 118.9, "type_A": 122.9, "address": "1349 Burnhamthorpe Rd E, Mississauga, ON L4Y 3V8, Canada", "longitude": -79.6034672, "latitude": 43.6224629}, "1075 Martin Grove Rd , Toronto - West, Ontario": {"name": "Esso", "type_D": 118.9, "type_B": 131.9, "type_C": 138.9, "type_A": 122.9, "address": "1075 Martin Grove Rd, Etobicoke, ON M9W 4W6, Canada", "longitude": -79.5750219, "latitude": 43.7016662}, "780 South Sheridan Way , Mississauga, Ontario": {"name": "Shell", "type_D": 119.9, "type_A": 122.9, "address": "780 S Sheridan Way, Mississauga, ON L5H 1Z6, Canada", "longitude": -79.61602599999999, "latitude": 43.5500171}, "445 Eglinton Ave E , Mississauga, Ontario": {"name": "Petro-Canada", "type_D": 121.9, "type_B": 134.9, "type_C": 140.9, "type_A": 122.9, "address": "445 Eglinton Ave E, Mississauga, ON L4Z 3L4, Canada", "longitude": -79.6432368, "latitude": 43.61642579999999}, "4685 Central Pkwy , Mississauga, Ontario": {"name": "Shell", "type_D": 122.9, "type_B": 132.9, "type_C": 142.9, "type_A": 122.9, "address": "4685 Central Pkwy E, Mississauga, ON L4Z 2E4, Canada", "longitude": -79.6414894, "latitude": 43.616498}, "640 Markham Rd , Toronto - East, Ontario": {"name": "Shell", "type_B": 130.9, "type_C": 138.9, "type_A": 122.9, "address": "640 Markham Rd, Scarborough, ON M1H, Canada", "longitude": -79.2255381, "latitude": 43.7601677}, "3304 Lawrence Ave E , Toronto - East, Ontario": {"name": "Petro-Canada", "type_B": 135.9, "type_C": 141.9, "type_A": 122.9, "address": "3304 Lawrence Ave E, Scarborough, ON M1H, Canada", "longitude": -79.2352954, "latitude": 43.7577895}, "1270 Brimley Rd , Toronto - East, Ontario": {"name": "Petro-Canada", "type_B": 135.9, "type_C": 141.9, "type_A": 122.9, "address": "1270 Brimley Rd, Scarborough, ON M1P 3G6, Canada", "longitude": -79.2616774, "latitude": 43.769724}, "3800 Kingston Rd , Toronto - East, Ontario": {"name": "Esso", "type_B": 135.9, "type_C": 141.9, "type_A": 122.9, "address": "3800 Kingston Rd, Scarborough, ON M1J 3H6, Canada", "longitude": -79.2076261, "latitude": 43.7485025}, "1150 Markham Rd , Toronto - East, Ontario": {"name": "Esso", "type_B": 135.9, "type_D": 119.9, "type_A": 122.9, "type_C": 141.9, "address": "1150 Markham Rd, Scarborough, ON M1H 2Y6, Canada", "longitude": -79.23212459999999, "latitude": 43.7759949}, "1651 Ellesmere Rd , Toronto - East, Ontario": {"name": "Petro-Canada", "type_C": 141.9, "type_A": 122.9, "address": "1651 Ellesmere Rd, Scarborough, ON M1H, Canada", "longitude": -79.2507998, "latitude": 43.77212189999999}, "3930 Lawrence Ave E , Toronto - East, Ontario": {"name": "Ultramar", "type_D": 116.9, "address": "3930 Lawrence Ave E, Scarborough, ON M1G 1R7, Canada", "longitude": -79.2053351, "latitude": 43.76441080000001}, "4901 Sheppard Ave E , Toronto - East, Ontario": {"name": "Pioneer", "type_D": 117.6, "type_B": 128.4, "type_C": 135.9, "type_A": 122.6, "address": "4901 Sheppard Ave E, Scarborough, ON M1S 4A6, Canada", "longitude": -79.2480934, "latitude": 43.7915658}, "1641 Markham Rd , Toronto - East, Ontario": {"name": "Esso", "type_D": 118.9, "type_B": 131.9, "type_A": 122.9, "type_C": 137.9, "address": "1641 Markham Rd, Scarborough, ON M1B 2W1, Canada", "longitude": -79.2380682, "latitude": 43.7936744}, "1510 Markham Rd , Toronto - East, Ontario": {"name": "Esso", "type_D": 119.9, "type_B": 131.9, "type_C": 137.9, "type_A": 122.9, "address": "1510 Markham Rd, Scarborough, ON M1B 2V9, Canada", "longitude": -79.2375059, "latitude": 43.7891391}, "1860 Ellesmere Rd , Toronto - East, Ontario": {"name": "Petro-Canada", "type_D": 120.9, "type_A": 123.3, "address": "1860 Ellesmere Rd, Scarborough, ON M1H 2V5, Canada", "longitude": -79.2428931, "latitude": 43.7741335}, "900 Progress Ave , Toronto - East, Ontario": {"name": "Petro-Canada", "type_D": 120.9, "type_B": 135.9, "type_C": 141.9, "type_A": 122.9, "address": "900 Progress Ave, Scarborough, ON M1H 2Z9, Canada", "longitude": -79.23478419999999, "latitude": 43.7821356}, "1525 Markham Rd , Toronto - East, Ontario": {"name": "Petro-Canada", "type_D": 122.9, "type_B": 135.9, "type_C": 141.9, "type_A": 122.9, "address": "1525 Markham Rd, Scarborough, ON M1B 2W1, Canada", "longitude": -79.2369947, "latitude": 43.7896874}, "3905 Sheppard Ave E , Toronto - East, Ontario": {"name": "Petro-Canada", "type_B": 135.9, "type_C": 141.9, "type_A": 122.9, "address": "3905 Sheppard Ave E, Scarborough, ON M1T 3L5, Canada", "longitude": -79.2884971, "latitude": 43.7828921}, "7092 Yonge St  , Vaughan, Ontario": {"name": "Petro-Canada", "type_A": 122.9, "address": "7092 Yonge St, Thornhill, ON L4J 1V7, Canada", "longitude": -79.4212701, "latitude": 43.8002641}, "1493 Finch Ave W , Toronto - North, Ontario": {"name": "Petro-Canada", "type_A": 122.9, "address": "1493 Finch Ave W, North York, ON M3J 2G7, Canada", "longitude": -79.4994268, "latitude": 43.7608876}, "1030 Centre St , Vaughan, Ontario": {"name": "Esso", "type_A": 122.9, "type_B": 134.9, "address": "1030 Centre St, Vaughan, ON L4J 3M8, Canada", "longitude": -79.4591038, "latitude": 43.8092677}, "7400 Bathurst St , Vaughan, Ontario": {"name": "Petro-Canada", "type_A": 122.9, "type_B": 135.9, "type_C": 141.9, "address": "7400 Bathurst St, Thornhill, ON L4J 7M1, Canada", "longitude": -79.4486974, "latitude": 43.80314080000001}, "1514 Steeles Ave W , Toronto - North, Ontario": {"name": "Petro-Canada", "type_A": 122.9, "type_B": 135.9, "type_C": 141.9, "address": "1514 Steeles Ave E, Toronto, ON L3R, Canada", "longitude": -79.3259375, "latitude": 43.8192352}, "2757 Hwy 7 W , Vaughan, Ontario": {"name": "Husky", "type_D": 112.7, "type_A": 119.9, "address": "2757 Hwy 7, Vaughan, ON L4K, Canada", "longitude": -79.5159419, "latitude": 43.7957235}, "2268 Rutherford Rd  , Vaughan, Ontario": {"name": "Ultramar", "type_D": 114.9, "type_A": 117.4, "address": "2268 Rutherford Rd, Concord, ON L4K 2N8, Canada", "longitude": -79.5087052, "latitude": 43.8366961}, "8656 Yonge St , Richmond Hill, Ontario": {"name": "Shell", "type_D": 118.9, "type_B": 136.9, "type_C": 144.9, "type_A": 122.9, "address": "8656 Yonge St, Richmond Hill, ON L4C 6Z4, Canada", "longitude": -79.43028029999999, "latitude": 43.8386601}, "1 Thornhill Woods Dr , Vaughan, Ontario": {"name": "Esso", "type_D": 118.9, "type_A": 122.9, "address": "1 Thornhill Woods Dr, Thornhill, ON L4J 8Y2, Canada", "longitude": -79.46388639999999, "latitude": 43.8266602}, "5 Red Maple Rd , Richmond Hill, Ontario": {"name": "Petro-Canada", "type_D": 122.9, "type_B": 135.9, "type_C": 141.9, "type_A": 122.9, "address": "5 Red Maple Rd, Richmond Hill, ON L4B 4M6, Canada", "longitude": -79.4197815, "latitude": 43.83912170000001}, "3733 Hwy 7 , Vaughan, Ontario": {"name": "Petro-Canada", "type_D": 122.9, "type_B": 130.9, "type_C": 139.9, "type_A": 117.9, "address": "3733 Hwy 7, Woodbridge, ON L4L 9H4, Canada", "longitude": -79.5466757, "latitude": 43.7888856}, "3380 Dixie Rd , Mississauga, Ontario": {"name": "Petro-Canada", "type_A": 116.7, "address": "3380 Dixie Rd, Mississauga, ON L4Y 2A8, Canada", "longitude": -79.59458, "latitude": 43.6163049}, "655 Queensway E , Mississauga, Ontario": {"name": "Petro-Canada", "type_A": 116.9, "address": "655 Queensway E, Mississauga, ON L5A 3X6, Canada", "longitude": -79.5926664, "latitude": 43.58863179999999}, "4011 Dixie Rd , Mississauga, Ontario": {"name": "Esso", "type_A": 122.9, "address": "4011 Dixie Rd, Mississauga, ON L4W 1M3, Canada", "longitude": -79.6025485, "latitude": 43.6230978}, "1553 Shawson Dr , Mississauga, Ontario": {"name": "Husky", "type_B": 124.9, "type_D": 113.9, "type_C": 127.9, "type_A": 112.9, "address": "1553 Shawson Dr, Mississauga, ON L4W 1T7, Canada", "longitude": -79.6429823, "latitude": 43.6539771}, "5145 Dixie Rd , Mississauga, Ontario": {"name": "Husky", "type_B": 129.7, "type_C": 136.7, "type_A": 114.7, "address": "5145 Dixie Rd, Mississauga, ON L4W 4G1, Canada", "longitude": -79.6246302, "latitude": 43.6398186}, "1520 Shawson Dr , Mississauga, Ontario": {"name": "Canadian Tire", "type_B": 129.9, "type_C": 134.9, "type_D": 118.9, "type_A": 115.9, "address": "1520 Shawson Dr, Mississauga, ON L4W 4W9, Canada", "longitude": -79.64296, "latitude": 43.652596}, "5835 Airport Rd , Mississauga, Ontario": {"name": "Petro-Canada", "type_B": 132.9, "type_C": 138.9, "type_D": 119.9, "type_A": 122.9, "address": "5835 Airport Rd, Mississauga, ON L4V 1C8, Canada", "longitude": -79.6062753, "latitude": 43.6863098}, "995 Eglinton Ave E , Mississauga, Ontario": {"name": "Petro-Canada", "type_B": 134.9, "type_C": 140.9, "type_A": 122.9, "address": "995 Eglinton Ave E, Mississauga, ON L4W 4H3, Canada", "longitude": -79.6311437, "latitude": 43.6270377}, "5869 Airport Rd , Mississauga, Ontario": {"name": "Shell", "type_B": 135.9, "type_C": 143.9, "type_D": 119.9, "type_A": 122.9, "address": "5869 Airport Rd, Mississauga, ON L4V 1C9, Canada", "longitude": -79.60738669999999, "latitude": 43.6863878}, "2044 Kipling Ave , Toronto - West, Ontario": {"name": "Pioneer", "type_D": 118.4, "type_A": 119.7, "type_C": 136.5, "address": "2044 Kipling Ave, Etobicoke, ON M9W, Canada", "longitude": -79.5676788, "latitude": 43.7138015}, "1480 Britannia Rd E , Mississauga, Ontario": {"name": "Shell", "type_D": 118.9, "type_B": 128.9, "type_C": 136.9, "type_A": 115.9, "address": "1480 Britannia Rd E, Mississauga, ON L4W 1C8, Canada", "longitude": -79.64746439999999, "latitude": 43.65464559999999}, "71 Colossus Dr , Vaughan, Ontario": {"name": "Costco", "type_C": 122.9, "type_A": 110.9, "address": "71 Colossus Dr, Woodbridge, ON L4L 9J8, Canada", "longitude": -79.54159039999999, "latitude": 43.785631}, "305 Rexdale Blvd , Toronto - West, Ontario": {"name": "Esso", "type_D": 119.9, "type_A": 119.9, "address": "305 Rexdale Blvd, Etobicoke, ON M9W 1R8, Canada", "longitude": -79.5825523, "latitude": 43.7135162}, "2500 Sheppard Ave E , Toronto - East, Ontario": {"name": "Petro-Canada", "type_A": 122.9, "address": "2500 Sheppard Ave E, North York, ON M2J, Canada", "longitude": -79.3246135, "latitude": 43.7748824}, "3401 Sheppard  Ave E , Toronto - East, Ontario": {"name": "Shell", "type_A": 122.9, "address": "3401 Sheppard Ave E, Scarborough, ON M1T 3K5, Canada", "longitude": -79.3071473, "latitude": 43.778616}, "3360 Sheppard Ave E , Toronto - East, Ontario": {"name": "Esso", "type_A": 122.9, "address": "3360 Sheppard Ave E, Scarborough, ON M1T, Canada", "longitude": -79.3078915, "latitude": 43.7787396}, "3101 Victoria Park Ave , Toronto - East, Ontario": {"name": "Shell", "type_A": 122.9, "address": "3101 Victoria Park Ave, Toronto, ON M1W 2T3, Canada", "longitude": -79.3307473, "latitude": 43.7928046}, "3400 Victoria Park Ave , Toronto - East, Ontario": {"name": "Esso", "type_B": 132.9, "type_C": 138.9, "type_A": 122.9, "address": "3400 Victoria Park Ave, Scarborough, ON M1W 2J6, Canada", "longitude": -79.33707629999999, "latitude": 43.8042421}, "3815 Victoria Park Ave , Toronto - East, Ontario": {"name": "Petro-Canada", "type_B": 133.9, "type_C": 139.9, "type_A": 122.9, "address": "3815 Victoria Park Ave, Scarborough, ON M1W 3Y6, Canada", "longitude": -79.3383202, "latitude": 43.8103531}, "2900 Steeles Ave E , Toronto - North, Ontario": {"name": "Esso", "type_B": 135.9, "type_C": 141.9, "type_A": 122.9, "address": "2900 Steeles Ave E, Thornhill, ON L3T 4X1, Canada", "longitude": -79.3583158, "latitude": 43.8126877}, "4000 Finch Ave E , Toronto - East, Ontario": {"name": "Esso", "type_D": 118.9, "type_A": 122.9, "type_B": 135.9, "type_C": 141.9, "address": "4000 Finch Ave E, Scarborough, ON M1S 3T6, Canada", "longitude": -79.29635669999999, "latitude": 43.8016242}, "2800 Kennedy Rd , Toronto - East, Ontario": {"name": "Petro-Canada", "type_D": 121.9, "type_A": 122.9, "type_B": 134.9, "type_C": 140.9, "address": "2800 Kennedy Rd, Scarborough, ON M1T 3J2, Canada", "longitude": -79.2967389, "latitude": 43.800817}, "7377 Yonge St , Vaughan, Ontario": {"name": "Husky", "type_A": 122.6, "address": "7377 Yonge St, Thornhill, ON L3T 2B4, Canada", "longitude": -79.4221065, "latitude": 43.8074912}, "2082 Kipling Ave , Toronto - West, Ontario": {"name": "Petro V Plus", "type_A": 119.5, "address": "2082 Kipling Ave, Etobicoke, ON M9W 4J9, Canada", "longitude": -79.56913229999999, "latitude": 43.7153917}, "2025 Kipling Ave , Toronto - West, Ontario": {"name": "Canadian Tire", "type_A": 122.9, "type_B": 132.9, "type_C": 137.9, "address": "2025 Kipling Ave, Etobicoke, ON M9W 4J8, Canada", "longitude": -79.56606579999999, "latitude": 43.7125981}, "135 Rexdale Blvd  , Toronto - West, Ontario": {"name": "Shell", "type_A": 119.9, "address": "135 Rexdale Blvd, Etobicoke, ON M9W 1P7, Canada", "longitude": -79.5670607, "latitude": 43.7112382}, "110 Rexdale Blvd , Toronto - West, Ontario": {"name": "Petro-Canada", "type_A": 119.9, "address": "110 Rexdale Blvd, Etobicoke, ON M9W 1P5, Canada", "longitude": -79.56542569999999, "latitude": 43.712576}, "288 Rexdale Blvd , Toronto - West, Ontario": {"name": "Petro-Canada", "type_A": 120.3, "address": "288 Rexdale Blvd, Etobicoke, ON M9W 1R6, Canada", "longitude": -79.5818685, "latitude": 43.7143985}, "2562 Weston Rd , Toronto - Central, Ontario": {"name": "Shell", "type_A": 122.9, "address": "2562 Weston Rd, Toronto, ON M9N 2A8, Canada", "longitude": -79.5349615, "latitude": 43.710022}, "627 Dixon Rd , Toronto - West, Ontario": {"name": "Shell", "type_A": 122.9, "address": "627 Dixon Rd, Etobicoke, ON M9W 1H7, Canada", "longitude": -79.57653169999999, "latitude": 43.6900381}, "585 Dixon Rd , Toronto - West, Ontario": {"name": "Petro-Canada", "type_A": 122.9, "address": "585 Dixon Rd, Etobicoke, ON M9W 1H7, Canada", "longitude": -79.57412769999999, "latitude": 43.6905161}, "2821 Weston Rd , Toronto - North, Ontario": {"name": "Petro-Canada", "type_A": 122.9, "address": "2821 Weston Rd, North York, ON M9M 2R8, Canada", "longitude": -79.53749599999999, "latitude": 43.720106}, "2291 Islington Ave , Toronto - West, Ontario": {"name": "Esso", "type_A": 122.9, "address": "2291 Islington Ave, Etobicoke, ON M9W, Canada", "longitude": -79.55511419999999, "latitude": 43.715929}, "330 Queen's Plate Dr , Toronto - West, Ontario": {"name": "Refuel", "type_B": 126.5, "type_C": 133.5, "type_D": 107.6, "type_A": 120.9, "address": "330 Queens Plate Dr, Etobicoke, ON M9W 7J7, Canada", "longitude": -79.5962916, "latitude": 43.7214387}, "524 Rexdale Blvd , Toronto - West, Ontario": {"name": "Petro-Canada", "type_B": 132.9, "type_C": 138.9, "type_A": 122.9, "address": "524 Rexdale Blvd, Etobicoke, ON M9W 7J9, Canada", "longitude": -79.6029825, "latitude": 43.7193991}, "1510 Albion Rd , Toronto - West, Ontario": {"name": "Shell", "type_B": 136.9, "type_C": 144.9, "type_A": 122.9, "address": "1510 Albion Rd, Etobicoke, ON M9V 1B3, Canada", "longitude": -79.5809933, "latitude": 43.7400349}, " 6897 Finch Ave W , Toronto - West, Ontario": {"name": "Esso", "type_D": 118.9, "type_A": 121.9, "type_B": 132.9, "type_C": 142.9, "address": "6897 Finch Ave W, Etobicoke, ON M9W 0A6, Canada", "longitude": -79.6173637, "latitude": 43.7346325}, "6990 Rexwood Rd , Mississauga, Ontario": {"name": "Shell", "type_D": 119.9, "type_B": 135.9, "type_C": 142.9, "type_A": 122.9, "address": "6990 Rexwood Rd, Mississauga, ON L4T 4E6, Canada", "longitude": -79.6278566, "latitude": 43.7164463}, "6998 Rexwood Rd , Mississauga, Ontario": {"name": "Esso", "type_D": 119.9, "type_B": 135.9, "type_C": 141.9, "type_A": 122.9, "address": "6998 Rexwood Rd, Mississauga, ON L4T 4E6, Canada", "longitude": -79.6275896, "latitude": 43.71575440000001}, "6625 Airport Rd , Mississauga, Ontario": {"name": "Petro-Canada", "type_D": 123.9, "type_A": 122.9, "address": "6625 Airport Rd, Mississauga, ON L4V 1Y1, Canada", "longitude": -79.63198419999999, "latitude": 43.6964917}, "1201 Markham Rd , Toronto - East, Ontario": {"name": "Shell", "type_A": 122.9, "type_B": 134.9, "type_C": 141.9, "address": "1201 Markham Rd, Scarborough, ON M1H 2Y8, Canada", "longitude": -79.2313617, "latitude": 43.7769248}, "4650 Sheppard Ave E , Toronto - East, Ontario": {"name": "Canadian Tire", "type_B": 129.6, "type_C": 134.6, "type_A": 122.9, "address": "4650 Sheppard Ave E, Scarborough, ON M1S 3J7, Canada", "longitude": -79.25942739999999, "latitude": 43.7900601}, "5110 Sheppard Ave E , Toronto - East, Ontario": {"name": "Petro-Canada", "type_B": 132.9, "type_D": 122.9, "type_A": 122.9, "type_C": 138.9, "address": "5110 Sheppard Ave E, Scarborough, ON M1S 4N3, Canada", "longitude": -79.2395856, "latitude": 43.7939687}, "5818 Sheppard Ave E , Toronto - East, Ontario": {"name": "Ultramar", "type_B": 134.9, "type_A": 122.9, "type_C": 137.9, "address": "5818 Sheppard Ave E, Scarborough, ON M1B 1H9, Canada", "longitude": -79.23022449999999, "latitude": 43.79604519999999}, "3100 Ellesmere Rd , Toronto - East, Ontario": {"name": "Petro-Canada", "type_D": 119.9, "type_B": 135.9, "type_C": 141.9, "type_A": 122.9, "address": "3100 Ellesmere Rd, Scarborough, ON M1E, Canada", "longitude": -79.19490069999999, "latitude": 43.7849762}, "4660 Kingston Rd , Toronto - East, Ontario": {"name": "Esso", "type_D": 119.9, "type_B": 129.9, "type_C": 134.9, "type_A": 117.9, "address": "4660 Kingston Rd, Scarborough, ON M1E 2P9, Canada", "longitude": -79.1757502, "latitude": 43.7757079}, "150 Lakeshore Rd E , Mississauga, Ontario": {"name": "Pioneer", "type_A": 117.9, "address": "150 Lakeshore Rd E, Mississauga, ON L5G 1E9, Canada", "longitude": -79.5813956, "latitude": 43.5562793}, "456 Lakeshore Rd E , Mississauga, Ontario": {"name": "Petro-Canada", "type_A": 120.3, "address": "456 Lakeshore Rd E, Mississauga, ON L5G 1J1, Canada", "longitude": -79.570844, "latitude": 43.5650175}, "1175 Hurontario St , Mississauga, Ontario": {"name": "Petro-Canada", "type_A": 122.9, "address": "1175 Hurontario St, Mississauga, ON L5G 3H1, Canada", "longitude": -79.58621, "latitude": 43.5587972}, "155 North Service Rd , Mississauga, Ontario": {"name": "Husky", "type_A": 122.9, "address": "155 N Service Rd, Mississauga, ON L5A 1A2, Canada", "longitude": -79.5964901, "latitude": 43.57215}, "4106 Cawthra Rd , Mississauga, Ontario": {"name": "Petro-Canada", "type_A": 122.9, "address": "4106 Cawthra Rd, Mississauga, ON L4Z 1A1, Canada", "longitude": -79.6216711, "latitude": 43.6099937}, "3411 Mavis Rd , Mississauga, Ontario": {"name": "Pioneer", "type_B": 125.1, "type_C": 132.6, "type_D": 118.6, "type_A": 122.6, "address": "3411 Mavis Rd, Mississauga, ON L5B 4E8, Canada", "longitude": -79.6449841, "latitude": 43.5749111}, "20 Bristol Rd W , Mississauga, Ontario": {"name": "Petro-Canada", "type_B": 128.9, "type_C": 134.9, "type_D": 122.9, "type_A": 122.9, "address": "20 Bristol Rd W, Mississauga, ON L5R 3K3, Canada", "longitude": -79.66360829999999, "latitude": 43.61373589999999}, "695 Burnhamthorpe Rd W , Mississauga, Ontario": {"name": "Petro-Canada", "type_B": 128.9, "type_C": 134.9, "type_A": 122.9, "address": "695 Burnhamthorpe Rd W, Mississauga, ON L5C 3A6, Canada", "longitude": -79.6524471, "latitude": 43.579394}, "1209 Dundas St W , Mississauga, Ontario": {"name": "Shell", "type_B": 130.9, "type_C": 138.9, "type_D": 119.9, "type_A": 122.9, "address": "1209 Dundas St W, Mississauga, ON L5C 1C4, Canada", "longitude": -79.64600370000001, "latitude": 43.5551799}, "5020 McLaughlin Rd , Mississauga, Ontario": {"name": "Husky", "type_B": 130.9, "type_C": 136.9, "type_A": 115.9, "address": "5020 McLaughlin Rd, Mississauga, ON L5R 3R8, Canada", "longitude": -79.6643749, "latitude": 43.5973189}, "632 Burnhamthorpe Rd W , Mississauga, Ontario": {"name": "Esso", "type_B": 130.9, "type_C": 136.9, "type_A": 122.9, "address": "632 Burnhamthorpe Rd W, Mississauga, ON L5B 2C4, Canada", "longitude": -79.6508661, "latitude": 43.5794414}, "5008 Hurontario St , Mississauga, Ontario": {"name": "Esso", "type_B": 131.9, "type_C": 137.9, "type_A": 122.9, "address": "5008 Hurontario St, Mississauga, ON L5R, Canada", "longitude": -79.65368769999999, "latitude": 43.6066774}, "4885 Mavis Rd , Mississauga, Ontario": {"name": "Esso", "type_B": 134.9, "type_C": 140.9, "type_A": 122.9, "address": "4885 Mavis Rd, Mississauga, ON L5R 3W4, Canada", "longitude": -79.668487, "latitude": 43.5923113}, "5555 Kennedy Rd , Mississauga, Ontario": {"name": "Petro-Canada", "type_B": 135.9, "type_C": 141.9, "type_A": 122.9, "address": "5555 Kennedy Rd, Mississauga, ON L4Z 3E1, Canada", "longitude": -79.6552538, "latitude": 43.6267746}, "5980 Hurontario St , Mississauga, Ontario": {"name": "Esso", "type_D": 118.9, "type_A": 122.9, "type_B": 134.9, "type_C": 140.9, "address": "5980 Hurontario St, Mississauga, ON L5R 3T6, Canada", "longitude": -79.679531, "latitude": 43.6254012}, "3020 Mavis Rd , Mississauga, Ontario": {"name": "Canadian Tire", "type_D": 119.3, "type_A": 122.9, "address": "3020 Mavis Rd, Mississauga, ON L5C 1T8, Canada", "longitude": -79.633687, "latitude": 43.566}, "5651 Hurontario St , Mississauga, Ontario": {"name": "Shell", "type_D": 119.7, "type_B": 135.9, "type_C": 141.9, "type_A": 122.9, "address": "5651 Hurontario St, Mississauga, ON L4Z 1S7, Canada", "longitude": -79.66917339999999, "latitude": 43.61962140000001}, "5979 Shawson Dr , Mississauga, Ontario": {"name": "Esso", "type_D": 119.9, "type_A": 117.5, "address": "5979 Shawson Dr, Mississauga, ON L4W 3Y2, Canada", "longitude": -79.6543789, "latitude": 43.64865349999999}, "6009 Hurontario St , Mississauga, Ontario": {"name": "Petro-Canada", "type_D": 120.9, "type_A": 119.9, "type_B": 131.9, "type_C": 137.9, "address": "6009 Hurontario St, Mississauga, ON L4Z 1S9, Canada", "longitude": -79.67958279999999, "latitude": 43.62688319999999}, "6070 Dixie Rd , Mississauga, Ontario": {"name": "Esso", "type_D": 123.9, "type_B": 127.9, "type_C": 133.9, "type_A": 118.9, "address": "6070 Dixie Rd, Mississauga, ON L5T, Canada", "longitude": -79.64960789999999, "latitude": 43.656755}, "1520 Courtneypark Dr E , Mississauga, Ontario": {"name": "Ultramar", "type_D": 116.9, "type_B": 128.9, "type_C": 131.9, "type_A": 112.9, "address": "1520 Courtneypark Dr E, Mississauga, ON L5T 2C7, Canada", "longitude": -79.6573994, "latitude": 43.6633857}, "6415 Dixie Rd , Mississauga, Ontario": {"name": "Esso", "type_D": 119.9, "type_B": 127.9, "type_C": 133.9, "type_A": 122.9, "address": "6415 Dixie Rd, Mississauga, ON L5T 1A4, Canada", "longitude": -79.657572, "latitude": 43.6645704}, "3764 Hwy 7 W , Vaughan, Ontario": {"name": "Esso", "type_A": 117.9, "address": "3764 Hwy 7, Woodbridge, ON L4L 9C3, Canada", "longitude": -79.54807989999999, "latitude": 43.78968589999999}, "7800 Jane St , Vaughan, Ontario": {"name": "Shell", "type_A": 122.9, "address": "7800 Jane St, Concord, ON L4K 4R6, Canada", "longitude": -79.52530010000001, "latitude": 43.794963}, "1000 Rowntree Dairy Rd , Vaughan, Ontario": {"name": "Petro-Canada", "type_A": 122.9, "address": "1000 Rowntree Dairy Rd, Woodbridge, ON L4L 5V8, Canada", "longitude": -79.56811429999999, "latitude": 43.7841385}, "4235 Hwy 7 , Vaughan, Ontario": {"name": "Shell", "type_A": 122.9, "address": "4235 Hwy 7, Woodbridge, ON L4L 5X7, Canada", "longitude": -79.564135, "latitude": 43.78563}, "7018 Islington Ave , Toronto - North, Ontario": {"name": "Esso", "type_A": 122.9, "address": "7018 Islington Ave, Woodbridge, ON L4L 1V8, Canada", "longitude": -79.5757313, "latitude": 43.7645186}, "9070 Jane St , Vaughan, Ontario": {"name": "Petro-Canada", "type_B": 134.9, "type_C": 140.9, "type_A": 121.6, "address": "9070 Jane St, Concord, ON L4K 2M9, Canada", "longitude": -79.53280629999999, "latitude": 43.8278435}, "5241 Hwy 7 W , Vaughan, Ontario": {"name": "Petro-Canada", "type_B": 134.9, "type_A": 119.3, "type_C": 141.9, "address": "5241 Hwy 7, Woodbridge, ON L4L 1T2, Canada", "longitude": -79.5968451, "latitude": 43.7784165}, "3680 Langstaff Rd , Vaughan, Ontario": {"name": "Petro-Canada", "type_B": 135.9, "type_C": 141.9, "type_A": 122.9, "address": "3680 Langstaff Rd, Woodbridge, ON L4L 9A8, Canada", "longitude": -79.5512557, "latitude": 43.808504}, "3191 Rutherford Rd , Vaughan, Ontario": {"name": "Husky", "type_D": 113.7, "type_A": 118.3, "type_B": 131.9, "type_C": 138.9, "address": "3191 Rutherford Rd, Concord, ON L4K 0A3, Canada", "longitude": -79.5382566, "latitude": 43.8292413}, "9332 Keele St , Vaughan, Ontario": {"name": "Husky", "type_D": 113.9, "type_A": 116.9, "address": "9332 Keele St, Vaughan, ON L6A 1P4, Canada", "longitude": -79.5093832, "latitude": 43.8388454}, "3200 Rutherford Rd , Vaughan, Ontario": {"name": "Canadian Tire", "type_D": 115.9, "type_A": 118.6, "type_B": 128.6, "type_C": 133.6, "address": "3200 Rutherford Rd, Vaughan, ON L4K 5R3, Canada", "longitude": -79.5378017, "latitude": 43.8304011}, "5260 Hwy 7 W , Vaughan, Ontario": {"name": "Husky", "type_D": 118.7, "type_B": 130.9, "type_C": 137.9, "address": "5260 Hwy 7, Woodbridge, ON L4L 1T3, Canada", "longitude": -79.5976652, "latitude": 43.77887399999999}, "5645 Hwy 7 , Vaughan, Ontario": {"name": "Canadian Tire", "type_D": 118.9, "type_B": 129.7, "type_C": 134.7, "type_A": 118.7, "address": "5645 Hwy 7, Woodbridge, ON L4L 1T7, Canada", "longitude": -79.6097763, "latitude": 43.7753557}, "2650 Rutherford Rd , Vaughan, Ontario": {"name": "Shell", "type_D": 119.9, "type_A": 118.4, "type_B": 132.9, "type_C": 140.9, "address": "2650 Rutherford Rd, Vaughan, ON L4K 2N9, Canada", "longitude": -79.5217164, "latitude": 43.8339862}, "3561 Sheppard Ave E , Toronto - East, Ontario": {"name": "Top Valu", "type_A": 120.9, "address": "3561 Sheppard Ave E, Scarborough, ON M1T 3K8, Canada", "longitude": -79.2998078, "latitude": 43.7802796}, "2801 Midland Ave , Toronto - East, Ontario": {"name": "Shell", "type_A": 122.9, "address": "2801 Midland Ave, Toronto, ON M1S 1S3, Canada", "longitude": -79.2832887, "latitude": 43.7974312}, "1670 McCowan Rd , Toronto - East, Ontario": {"name": "Shell", "type_A": 122.9, "address": "1670 McCowan Rd, Scarborough, ON M1S, Canada", "longitude": -79.2575325, "latitude": 43.787004}, "3600 Sheppard Ave E , Toronto - East, Ontario": {"name": "Esso", "type_A": 122.9, "address": "3600 Sheppard Ave E, Scarborough, ON M1T 3K8, Canada", "longitude": -79.29876949999999, "latitude": 43.7812651}, "1149 Morningside Ave , Toronto - East, Ontario": {"name": "Esso", "type_B": 132.9, "type_C": 138.9, "type_D": 118.9, "type_A": 122.9, "address": "1149 Morningside Ave, Scarborough, ON M1B, Canada", "longitude": -79.1992363, "latitude": 43.8017295}, "8301 Sheppard Ave E , Toronto - East, Ontario": {"name": "Shell", "type_B": 132.9, "type_C": 140.9, "type_A": 122.9, "address": "8301 Sheppard Ave E, Scarborough, ON M1B 5P7, Canada", "longitude": -79.1923841, "latitude": 43.8031882}, "800 Morningside Ave , Toronto - East, Ontario": {"name": "Husky", "type_B": 134.9, "type_C": 141.9, "type_A": 122.9, "address": "800 Morningside Ave, Scarborough, ON M1C 1B8, Canada", "longitude": -79.19501199999999, "latitude": 43.7898057}, "3381 Kennedy Rd , Toronto - East, Ontario": {"name": "Shell", "type_B": 135.9, "type_C": 143.9, "type_A": 122.9, "address": "3381 Kennedy Rd, Toronto, ON M1V 4Y1, Canada", "longitude": -79.3040307, "latitude": 43.8182007}, "4575 Steeles Ave E , Toronto - East, Ontario": {"name": "Petro-Canada", "type_B": 135.9, "type_D": 119.9, "type_C": 141.9, "address": "4575 Steeles Ave E, Scarborough, ON M1V, Canada", "longitude": -79.3060982, "latitude": 43.82384769999999}, "3615 McNicoll Ave , Toronto - East, Ontario": {"name": "Pioneer", "type_D": 117.6, "type_A": 118.6, "address": "3615 McNicoll Ave, Scarborough, ON M1X 1G4, Canada", "longitude": -79.2466845, "latitude": 43.8240749}, "35 Old Kennedy Rd , Markham, Ontario": {"name": "XTR", "type_D": 118.9, "address": "35 Old Kennedy Rd, Markham, ON L3R 0L6, Canada", "longitude": -79.29992159999999, "latitude": 43.82636129999999}, "4919 Steeles Ave E , Toronto - East, Ontario": {"name": "Canadian Petroleum", "type_A": 116.9, "address": "4919 Steeles Ave E, Scarborough, ON M1V, Canada", "longitude": -79.290885, "latitude": 43.8269734}, "3700 Steeles Ave E , Toronto - East, Ontario": {"name": "Petro-Canada", "type_A": 122.9, "type_B": 132.9, "type_C": 138.9, "address": "3700 Steeles Ave E, Markham, ON L3R 0L9, Canada", "longitude": -79.3262666, "latitude": 43.819758}, "7010 Woodbine Ave , Toronto - North, Ontario": {"name": "Esso", "type_A": 122.9, "type_B": 135.9, "type_C": 141.9, "address": "7010 Woodbine Ave, Markham, ON L3R 1A2, Canada", "longitude": -79.3492646, "latitude": 43.8142779}, "7749 Kennedy Rd , Markham, Ontario": {"name": "Esso", "type_B": 135.9, "type_D": 119.9, "type_A": 122.9, "type_C": 141.9, "address": "7749 Kennedy Rd, Markham, ON L3R, Canada", "longitude": -79.3045669, "latitude": 43.8432934}, "8291 Woodbine Ave , Markham, Ontario": {"name": "Esso", "type_D": 118.9, "type_B": 134.9, "type_C": 140.9, "type_A": 122.9, "address": "8291 Woodbine Ave, Markham, ON L3R 2P4, Canada", "longitude": -79.3562062, "latitude": 43.8448651}, "1765 Albion Rd , Toronto - West, Ontario": {"name": "Shell", "type_A": 122.9, "type_B": 136.9, "type_C": 144.9, "address": "1765 Albion Rd, Etobicoke, ON M9W 5S7, Canada", "longitude": -79.6081324, "latitude": 43.74378}, "5000 Steeles Ave W , Toronto - West, Ontario": {"name": "Petro-Canada", "type_A": 122.9, "address": "5000 Steeles Ave E, Scarborough, ON M1V, Canada", "longitude": -79.2889539, "latitude": 43.82786919999999}, "1666 Albion Rd , Toronto - West, Ontario": {"name": "Canadian Tire", "type_A": 122.9, "address": "1666 Albion Rd, Etobicoke, ON M9V 1B8, Canada", "longitude": -79.594858, "latitude": 43.74240899999999}, "3171 Derry Rd E , Mississauga, Ontario": {"name": "Petroleum Plus", "type_B": 124.9, "type_C": 135.9, "type_D": 116.9, "type_A": 118.9, "address": "3171 Derry Rd E, Mississauga, ON L4T 1A8, Canada", "longitude": -79.6392587, "latitude": 43.70766829999999}, "7454 Airport Rd , Mississauga, Ontario": {"name": "Econo", "type_B": 126.9, "type_A": 116.9, "address": "7454 Airport Rd, Mississauga, ON L4T 2H5, Canada", "longitude": -79.6550079, "latitude": 43.712337}, "7355 Goreway Dr , Mississauga, Ontario": {"name": "Petro-Canada", "type_B": 132.9, "type_C": 140.9, "type_D": 122.9, "type_A": 122.9, "address": "7355 Goreway Dr, Mississauga, ON L4T 2T8, Canada", "longitude": -79.641204, "latitude": 43.7209638}, "55 New Huntington Rd , Vaughan, Ontario": {"name": "Costco", "type_C": 122.9, "type_A": 110.9, "address": "55 New Huntington Rd, Woodbridge, ON L4H 3M9, Canada", "longitude": -79.63918939999999, "latitude": 43.7699368}, "5869 Hwy 7 EB , Vaughan, Ontario": {"name": "Pioneer", "type_D": 118.4, "type_A": 114.6, "address": "5869 Hwy 7, Woodbridge, ON L4L 1T8, Canada", "longitude": -79.6141854, "latitude": 43.7748019}, "2 Vaughan Valley Blvd , Vaughan, Ontario": {"name": "Shell", "type_D": 118.9, "type_A": 122.9, "address": "2 Vaughan Valley Blvd, Vaughan, ON l4k 3c4, Canada", "longitude": -79.6263638, "latitude": 43.772427}, "4995 Ebenezer Rd , Brampton, Ontario": {"name": "Petro-Canada", "type_D": 119.9, "type_B": 134.9, "type_C": 140.9, "type_A": 122.9, "address": "4995 Ebenezer Rd, Brampton, ON L6P, Canada", "longitude": -79.65567089999999, "latitude": 43.7783177}, "1700 Derry Rd E , Mississauga, Ontario": {"name": "Husky", "type_B": 123.9, "type_C": 130.9, "type_D": 118.7, "type_A": 122.7, "address": "1700 Derry Rd E, Mississauga, ON L5S 1X8, Canada", "longitude": -79.66869489999999, "latitude": 43.6794181}, "6995 Dixie Rd , Mississauga, Ontario": {"name": "Petro-Canada", "type_D": 118.9, "type_B": 128.9, "type_C": 135.9, "type_A": 122.9, "address": "6995 Dixie Rd, Mississauga, ON L5T 1A8, Canada", "longitude": -79.673412, "latitude": 43.675268}, "4403 Kingston Rd , Toronto - East, Ontario": {"name": "Amco", "type_A": 115.9, "address": "4403 Kingston Rd, Scarborough, ON M1E 2N2, Canada", "longitude": -79.1903325, "latitude": 43.76637849999999}, "4418 Kingston Rd , Toronto - East, Ontario": {"name": "Global", "type_A": 117.9, "address": "4418 Kingston Rd, Scarborough, ON M1E 2N4, Canada", "longitude": -79.1888242, "latitude": 43.7686068}, "278 Old Kingston Rd , Toronto - East, Ontario": {"name": "Tru Value", "type_C": 128.9, "type_A": 116.9, "address": "278 Old Kingston Rd, Scarborough, ON M1C 1B5, Canada", "longitude": -79.1723212, "latitude": 43.7826538}, "6731 Kingston Rd , Toronto - East, Ontario": {"name": "Shell", "type_D": 118.9, "type_A": 118.9, "type_B": 134.9, "type_C": 142.9, "address": "6731 Kingston Rd, Scarborough, ON M1B 1G9, Canada", "longitude": -79.1485584, "latitude": 43.7970559}, "6483 Kingston Rd  , Toronto - East, Ontario": {"name": "Global", "type_D": 119.9, "type_B": 134.9, "type_C": 139.9, "type_A": 121.9, "address": "6483 Kingston Rd, Scarborough, ON M1C 1L4, Canada", "longitude": -79.1564535, "latitude": 43.7922747}, "7761 Woodbine Ave , Markham, Ontario": {"name": "Petro-Canada", "type_A": 123.3, "address": "7761 Woodbine Ave, Markham, ON L3R 5X8, Canada", "longitude": -79.35296389999999, "latitude": 43.8321708}, "255 E Beaver Creek Rd , Richmond Hill, Ontario": {"name": "Esso", "type_D": 118.9, "type_A": 122.9, "type_B": 135.9, "type_C": 141.9, "address": "255 East Beaver Creek Rd, Richmond Hill, ON L4B 1M7, Canada", "longitude": -79.37854, "latitude": 43.84569399999999}, "6161 Hwy 7 , Vaughan, Ontario": {"name": "Esso", "type_A": 119.9, "address": "6161 Hwy 7, Woodbridge, ON L4H 0K7, Canada", "longitude": -79.6257718, "latitude": 43.7714617}, "2645 Steeles Ave E , Brampton, Ontario": {"name": "Esso", "type_A": 122.9, "type_B": 133.9, "type_C": 139.9, "address": "2645 Steeles Ave E, Brampton, ON L6T, Canada", "longitude": -79.6683496, "latitude": 43.72377789999999}, "35 Cherrycrest Dr , Brampton, Ontario": {"name": "Esso", "type_B": 128.9, "type_D": 118.9, "type_C": 138.9, "type_A": 119.6, "address": "35 Cherrycrest Drive, Brampton, ON L6P 0S2, Canada", "longitude": -79.6698358, "latitude": 43.7636443}, "1795 Steeles Ave E , Brampton, Ontario": {"name": "Canadian Tire", "type_B": 129.6, "type_C": 134.6, "type_D": 114.9, "type_A": 122.9, "address": "1795 Steeles Ave E, Brampton, ON L6T 4L5, Canada", "longitude": -79.68932370000002, "latitude": 43.7052199}, "2439 Steeles Ave E , Brampton, Ontario": {"name": "Circle K", "type_B": 131.6, "type_C": 138.6, "type_D": 111.9, "type_A": 119.9, "address": "2439 Steeles Ave E, Brampton, ON L6T 5J9, Canada", "longitude": -79.67996610000002, "latitude": 43.7135032}, "7280 Dixie Rd , Mississauga, Ontario": {"name": "Esso", "type_B": 132.9, "type_D": 118.9, "type_A": 121.9, "type_C": 138.9, "address": "7280 Dixie Rd, Mississauga, ON L5S 1E1, Canada", "longitude": -79.6974565, "latitude": 43.6921256}, "8155 Torbram Rd , Brampton, Ontario": {"name": "Petro-Canada", "type_D": 126.9, "type_A": 120.6, "address": "8155 Torbram Rd, Brampton, ON L6T 5C5, Canada", "longitude": -79.6835756, "latitude": 43.7177652}, "2810 Markham Rd , Toronto - East, Ontario": {"name": "Amco", "type_A": 119.6, "address": "2810 Markham Rd, Scarborough, ON M1X, Canada", "longitude": -79.247795, "latitude": 43.8229452}, "5551 Finch Ave E , Toronto - East, Ontario": {"name": "Esso", "type_A": 122.9, "address": "5551 Finch Ave E, Scarborough, ON M1B 2T9, Canada", "longitude": -79.24234539999999, "latitude": 43.8128794}, "5445 Steeles Ave E , Toronto - East, Ontario": {"name": "Shell", "type_A": 122.9, "address": "5445 Steeles Ave E, Scarborough, ON M1V 5C2, Canada", "longitude": -79.27550959999999, "latitude": 43.8306354}, "5270 Steeles Ave E , Toronto - East, Ontario": {"name": "Petro-Canada", "type_A": 122.9, "address": "5270 Steeles Ave E, Markham, ON L3S 1N1, Canada", "longitude": -79.2759244, "latitude": 43.83128079999999}, "4780 Hwy 7 E , Markham, Ontario": {"name": "Petro-Canada", "type_B": 135.9, "type_D": 122.9, "type_A": 122.9, "type_C": 141.9, "address": "4780 Hwy 7, Unionville, ON L3R 1M8, Canada", "longitude": -79.3033354, "latitude": 43.8631663}, "8330 Kennedy Rd , Markham, Ontario": {"name": "Shell", "type_B": 136.9, "type_C": 144.9, "type_A": 122.9, "address": "8330 Kennedy Rd, Unionville, ON L3R 0P5, Canada", "longitude": -79.3054429, "latitude": 43.857125}, "2830 16th Ave , Markham, Ontario": {"name": "Petro-Canada", "type_D": 118.9, "type_A": 122.9, "type_B": 135.9, "type_C": 141.9, "address": "2830 16th Ave, Markham, ON L3R 0K8, Canada", "longitude": -79.369674, "latitude": 43.8670651}, "3010 16th Ave , Markham, Ontario": {"name": "Esso", "type_D": 118.9, "type_A": 122.9, "type_B": 133.9, "type_C": 139.9, "address": "3010 16th Ave, Markham, ON L6C 0G5, Canada", "longitude": -79.3622113, "latitude": 43.868424}, "8510 Woodbine Ave , Markham, Ontario": {"name": "Shell", "type_A": 122.9, "address": "8510 Woodbine Ave, Markham, ON L3R 4X8, Canada", "longitude": -79.3587065, "latitude": 43.85059}, "8760 Bayview Ave , Richmond Hill, Ontario": {"name": "Petro-Canada", "type_A": 122.9, "type_B": 135.9, "type_C": 141.9, "address": "8760 Bayview Ave, Richmond Hill, ON L4B 4M2, Canada", "longitude": -79.4084819, "latitude": 43.8445007}, "408 Hwy 7 E , Richmond Hill, Ontario": {"name": "Shell", "type_A": 122.9, "address": "408 Hwy 7, Richmond Hill, ON L4B 1A9, Canada", "longitude": -79.3922709, "latitude": 43.8425316}, "7738 Yonge St  , Vaughan, Ontario": {"name": "Petro-Canada", "type_A": 123.3, "address": "7738 Yonge St, Thornhill, ON L4J 1W2, Canada", "longitude": -79.42495989999999, "latitude": 43.8159645}, "9240 Leslie St , Richmond Hill, Ontario": {"name": "Shell", "type_B": 134.9, "type_C": 141.9, "type_A": 122.9, "address": "9240 Leslie St, Richmond Hill, ON L4B 2N8, Canada", "longitude": -79.3873235, "latitude": 43.8619126}, "9277 Bayview Ave , Richmond Hill, Ontario": {"name": "Petro-Canada", "type_B": 135.9, "type_C": 141.9, "type_A": 122.9, "address": "9277 Bayview Ave, Richmond Hill, ON L4C 9X6, Canada", "longitude": -79.41025359999999, "latitude": 43.8575578}, "735 16th Ave , Richmond Hill, Ontario": {"name": "Esso", "type_B": 135.9, "type_C": 141.9, "type_D": 119.9, "type_A": 122.9, "address": "735 16th Ave, Richmond Hill, ON L4C 7A8, Canada", "longitude": -79.4098422, "latitude": 43.8571536}, "9999 Bayview Ave , Richmond Hill, Ontario": {"name": "Esso", "type_D": 118.9, "type_A": 122.9, "type_B": 135.9, "type_C": 141.9, "address": "9999 Bayview Ave, Richmond Hill, ON L4C 8W7, Canada", "longitude": -79.4148027, "latitude": 43.8758473}, "9700 Yonge St , Richmond Hill, Ontario": {"name": "Esso", "type_D": 119.9, "type_B": 129.9, "type_C": 135.9, "type_A": 122.9, "address": "9700 Yonge St, Richmond Hill, ON L4C 1V8, Canada", "longitude": -79.4361067, "latitude": 43.86350849999999}, "9550 Yonge St , Richmond Hill, Ontario": {"name": "Petro-Canada", "type_D": 120.9, "type_B": 129.9, "type_C": 135.9, "type_A": 116.9, "address": "9550 Yonge St, Richmond Hill, ON L4C 1V6, Canada", "longitude": -79.43544, "latitude": 43.8604772}, "3445 Hurontario St , Mississauga, Ontario": {"name": "Esso", "type_A": 122.9, "address": "3445 Hurontario St, Mississauga, ON L5A 2H4, Canada", "longitude": -79.628053, "latitude": 43.5892865}, "3680 Hurontario St , Mississauga, Ontario": {"name": "Petro-Canada", "type_A": 122.9, "address": "3680 Hurontario St, Mississauga, ON L5B 1P3, Canada", "longitude": -79.6352, "latitude": 43.5929425}, "795 Eglinton Ave W , Mississauga, Ontario": {"name": "Shell", "type_B": 134.9, "type_C": 140.9, "type_A": 122.9, "address": "795 Eglinton Ave W, Mississauga, ON L5V, Canada", "longitude": -79.6700281, "latitude": 43.59223840000001}, "6625 Kennedy Rd , Mississauga, Ontario": {"name": "Husky", "type_D": 117.9, "type_A": 112.9, "type_B": 121.9, "type_C": 130.9, "address": "6625 Kennedy Rd, Mississauga, ON L5T 2W4, Canada", "longitude": -79.6830385, "latitude": 43.64748669999999}, "2067 Rutherford Rd , Vaughan, Ontario": {"name": "7-Eleven", "type_A": 116.9, "address": "2067 Rutherford Rd, Concord, ON L4K 5T6, Canada", "longitude": -79.50261700000001, "latitude": 43.837777}, "8555 Keele St , Vaughan, Ontario": {"name": "Esso", "type_A": 117.9, "address": "8555 Keele St, Concord, ON L4K 2N1, Canada", "longitude": -79.5032335, "latitude": 43.8191605}, "2651 Rutherford Rd , Vaughan, Ontario": {"name": "Petro-Canada", "type_A": 118.4, "type_B": 131.9, "address": "2651 Rutherford Rd, Vaughan, ON L4K 2N6, Canada", "longitude": -79.5229451, "latitude": 43.8327009}, "15 Connie Cres , Vaughan, Ontario": {"name": "Amco", "type_A": 120.9, "address": "15 Connie Crescent, Concord, ON L4K 1L3, Canada", "longitude": -79.4920812, "latitude": 43.8204217}, "3711 Rutherford Rd , Vaughan, Ontario": {"name": "7-Eleven", "type_A": 121.3, "address": "3711 Rutherford Rd, Vaughan, ON L4L 1A6, Canada", "longitude": -79.55451699999999, "latitude": 43.8258679}, "3650 Rutherford Rd , Vaughan, Ontario": {"name": "Esso", "type_A": 121.3, "address": "3650 Rutherford Rd, Concord, ON L4K 5Y6, Canada", "longitude": -79.552104, "latitude": 43.8272631}, "10750 Jane St , Vaughan, Ontario": {"name": "Esso", "type_A": 119.9, "type_B": 134.9, "type_C": 140.9, "address": "10750 Jane St, Maple, ON L6A 1S1, Canada", "longitude": -79.5416542, "latitude": 43.8679459}, "2660 Major Mackenzie Dr W , Vaughan, Ontario": {"name": "Mac's", "type_A": 121.9, "type_D": 117.9, "address": "2660 Major MacKenzie Dr W, Maple, ON L6A 1C1, Canada", "longitude": -79.52677210000002, "latitude": 43.8523432}, "3700 Major Mackenzie Dr W , Vaughan, Ontario": {"name": "Petro-Canada", "type_A": 122.9, "address": "3700 Major MacKenzie Dr W, Maple, ON L6A 1S1, Canada", "longitude": -79.5574329, "latitude": 43.8456455}, "1500 Major Mackenzie Dr W , Vaughan, Ontario": {"name": "Esso", "type_A": 122.9, "type_B": 135.9, "type_C": 141.9, "address": "1500 Major MacKenzie Dr W, Maple, ON L6A 0A9, Canada", "longitude": -79.4883175, "latitude": 43.8616126}, "1867 Major Mackenzie Dr , Vaughan, Ontario": {"name": "Petro-Canada", "type_A": 122.9, "type_B": 132.9, "type_C": 138.9, "address": "1867 Major MacKenzie Dr W, Maple, ON L6A 0P5, Canada", "longitude": -79.49924089999999, "latitude": 43.8579595}, "3555 Major Mackenzie Dr W , Vaughan, Ontario": {"name": "Esso", "type_A": 122.9, "address": "3555 Major MacKenzie Dr W, Woodbridge, ON L4H 2Y8, Canada", "longitude": -79.5531621, "latitude": 43.8452433}, "3100 Major Mackenzie Dr W , Vaughan, Ontario": {"name": "Esso", "type_A": 122.9, "address": "3100 Major MacKenzie Dr W, Vaughan, ON L6A, Canada", "longitude": -79.53727649999999, "latitude": 43.8499025}, "3000 Major Mackenzie Dr W , Vaughan, Ontario": {"name": "Shell", "type_A": 122.9, "type_D": 118.9, "address": "3000 Major MacKenzie Dr W, Maple, ON L6A 3Z5, Canada", "longitude": -79.5360661, "latitude": 43.8500172}, "1081 Rutherford Rd , Vaughan, Ontario": {"name": "Petro-Canada", "type_A": 122.9, "address": "1081 Rutherford Rd, Thornhill, ON L4J 9C2, Canada", "longitude": -79.4695694, "latitude": 43.8449377}, "8727 Dufferin St , Vaughan, Ontario": {"name": "Petro-Canada", "type_A": 122.9, "address": "8727 Dufferin St, Thornhill, ON L4J, Canada", "longitude": -79.4799488, "latitude": 43.82948649999999}, "9400 Hwy 27 , Vaughan, Ontario": {"name": "Mi Fuel", "type_B": 124.9, "type_C": 131.9, "type_D": 116.9, "type_A": 119.9, "address": "9400 Hwy 27, Woodbridge, ON L4L 1A7, Canada", "longitude": -79.630833, "latitude": 43.8148728}, "10700 Bathurst St , Vaughan, Ontario": {"name": "Shell", "type_B": 128.9, "type_C": 136.9, "type_D": 121.9, "type_A": 116.9, "address": "10700 Bathurst St, Maple, ON L6A 4B6, Canada", "longitude": -79.4679216, "latitude": 43.8835997}, "11600 Keele St , Vaughan, Ontario": {"name": "Petro-Canada", "type_B": 133.9, "type_C": 139.9, "type_A": 122.9, "address": "11600 Keele St, Maple, ON L6A 1S1, Canada", "longitude": -79.5215855, "latitude": 43.8920263}, "11200 Hwy 400 , Vaughan, Ontario": {"name": "Esso", "type_B": 136.9, "type_C": 142.9, "type_D": 119.9, "type_A": 123.9, "address": "11200 ON-400, Woodbridge, ON L4L 1A6, Canada", "longitude": -79.5571042, "latitude": 43.875021}, "10749 Bathurst St , Richmond Hill, Ontario": {"name": "Petro-Canada", "type_C": 141.9, "type_A": 116.9, "address": "10749 Bathurst St, Richmond Hill, ON L4C 7V3, Canada", "longitude": -79.4668154, "latitude": 43.8838769}, "12001 Hwy 400 NB , Vaughan, Ontario": {"name": "Canadian Tire", "type_D": 119.7, "type_A": 125.3, "address": "12001 ON-400 #1S1, King City, ON L7B 1A8, Canada", "longitude": -79.5574951, "latitude": 43.8950319}, "9501 Sheppard Ave E , Toronto - East, Ontario": {"name": "Petro-Canada", "type_B": 132.9, "type_A": 119.9, "type_C": 138.9, "address": "9501 Sheppard Ave E, Scarborough, ON \u2022 M1E 4R2, Canada", "longitude": -79.1714312, "latitude": 43.807831}, "285 Lawson Rd , Toronto - East, Ontario": {"name": "Amco", "type_C": 134.9, "type_A": 116.9, "address": "285 Lawson Rd, Scarborough, ON M1C 2J6, Canada", "longitude": -79.1515541, "latitude": 43.7870445}, "7445 Kingston Rd , Toronto - East, Ontario": {"name": "Pioneer", "type_D": 117.6, "type_A": 118.6, "type_B": 128.1, "type_C": 135.6, "address": "7445 Kingston Rd, Scarborough, ON \u2022 M1E 4R2, Canada", "longitude": -79.1416897, "latitude": 43.80155449999999}, "6780 Kingston Rd , Toronto - East, Ontario": {"name": "Esso", "type_D": 118.9, "type_A": 119.2, "type_B": 134.9, "type_C": 140.9, "address": "6780 Kingston Rd, Scarborough, ON M1B 1G8, Canada", "longitude": -79.14725039999999, "latitude": 43.7989086}, "8830 Yonge St , Richmond Hill, Ontario": {"name": "Canadian Tire", "type_A": 116.9, "address": "8830 Yonge St, Richmond Hill, ON L4C 6Z6, Canada", "longitude": -79.4310593, "latitude": 43.842674}, "695 Major Mackenzie Dr E , Richmond Hill, Ontario": {"name": "Petro-Canada", "type_A": 122.9, "type_B": 135.9, "type_C": 141.9, "address": "695 Major Mackenzie Dr E, Richmond Hill, ON L4C 1J7, Canada", "longitude": -79.4157077, "latitude": 43.8756542}, "10016 Bayview Ave , Richmond Hill, Ontario": {"name": "Shell", "type_B": 135.9, "type_C": 143.9, "type_A": 122.9, "address": "10016 Bayview Ave, Richmond Hill, ON L4C 2K9, Canada", "longitude": -79.4159277, "latitude": 43.8762496}, "2881 Major Mackenzie Dr E , Markham, Ontario": {"name": "Shell", "type_B": 136.9, "type_C": 144.9, "type_D": 118.9, "type_A": 122.9, "address": "2881 Major Mackenzie Dr E, Markham, ON L6C, Canada", "longitude": -79.3723736, "latitude": 43.8843851}, "1485 Elgin Mills Rd E , Richmond Hill, Ontario": {"name": "Esso", "type_D": 119.9, "type_B": 135.9, "type_C": 141.9, "type_A": 122.9, "address": "1485 Elgin Mills Rd E, Richmond Hill, ON L4S 1M8, Canada", "longitude": -79.3963538, "latitude": 43.8977842}, "2801 Elgin Mills Rd E , Markham, Ontario": {"name": "Esso", "type_D": 120.9, "type_B": 135.9, "type_C": 141.9, "type_A": 122.9, "address": "2801 Elgin Mills Rd E, Markham, ON L6C 1K8, Canada", "longitude": -79.3783523, "latitude": 43.9020822}, "1095 Lakeshore Rd W , Mississauga, Ontario": {"name": "Pioneer", "type_A": 117.6, "address": "1095 Lakeshore Rd W, Mississauga, ON L5H 1J3, Canada", "longitude": -79.6079063, "latitude": 43.5315792}, "3233 Erin Mills Pkwy , Mississauga, Ontario": {"name": "Mi Fuel", "type_A": 119.9, "type_B": 122.9, "type_C": 130.9, "type_D": 117.9, "address": "3233 Erin Mills Pkwy, Mississauga, ON L5L 1R1, Canada", "longitude": -79.67302389999999, "latitude": 43.541262}, "2285 Benedet Dr , Mississauga, Ontario": {"name": "Petro Split Serve", "type_A": 119.9, "type_B": 124.9, "type_C": 131.9, "type_D": 119.9, "address": "2285 Benedet Dr, Mississauga, ON L5J 4J8, Canada", "longitude": -79.6553599, "latitude": 43.5163294}, "2125 Dundas St W , Mississauga, Ontario": {"name": "Petro-Canada", "type_A": 122.9, "type_B": 135.9, "type_C": 141.9, "type_D": 120.9, "address": "2125 Dundas St W, Mississauga, ON L5K 2E2, Canada", "longitude": -79.6683268, "latitude": 43.5355429}, "3685 Erindale Station Rd , Mississauga, Ontario": {"name": "Shell", "type_A": 122.9, "address": "3685 Erindale Station Rd, Mississauga, ON L5C 2S9, Canada", "longitude": -79.6605216, "latitude": 43.5706599}, "3011 Wolfedale Rd , Mississauga, Ontario": {"name": "Petro-Canada", "type_A": 122.9, "address": "3011 Wolfedale Rd, Mississauga, ON L5C 1V8, Canada", "longitude": -79.63640149999999, "latitude": 43.5637862}, "1212 Southdown Rd , Mississauga, Ontario": {"name": "Canadian Tire", "type_A": 122.9, "address": "1212 Southdown Rd, Mississauga, ON L5J 2Z2, Canada", "longitude": -79.6357314, "latitude": 43.51482559999999}, "1405 Southdown Rd , Mississauga, Ontario": {"name": "Petro-Canada", "type_A": 122.9, "address": "1405 Southdown Rd, Mississauga, ON L5J 2Y9, Canada", "longitude": -79.64015619999999, "latitude": 43.5192249}, "2185 Leanne Blvd , Mississauga, Ontario": {"name": "Esso", "type_A": 122.9, "address": "2185 Leanne Blvd, Mississauga, ON L5K 2L6, Canada", "longitude": -79.65261020000001, "latitude": 43.52695000000001}, "2165 Erin Mills Pkwy , Mississauga, Ontario": {"name": "Shell", "type_A": 122.9, "type_B": 127.9, "type_C": 136.9, "type_D": 119.9, "address": "2165 Erin Mills Pkwy, Mississauga, ON L5K 1T7, Canada", "longitude": -79.6516405, "latitude": 43.52763239999999}, "2645 Fifth Line W , Mississauga, Ontario": {"name": "Petro-Canada", "type_A": 122.9, "type_B": 135.9, "type_C": 141.9, "address": "2645 Fifth Line W, Mississauga, ON L5K 1V9, Canada", "longitude": -79.6669903, "latitude": 43.535667}, "1765 Lakeshore Rd W , Mississauga, Ontario": {"name": "Esso", "type_A": 122.9, "address": "1765 Lakeshore Rd W, Mississauga, ON L5J 2V8, Canada", "longitude": -79.6237137, "latitude": 43.5170979}, "3100 Winston Churchill Blvd , Mississauga, Ontario": {"name": "Pioneer", "type_B": 126.2, "type_C": 133.7, "type_D": 114.6, "type_A": 116.7, "address": "3100 Winston Churchill Blvd, Mississauga, ON L5L 1P5, Canada", "longitude": -79.6849311, "latitude": 43.5245531}, "3405 Glen Erin Dr , Mississauga, Ontario": {"name": "Esso", "type_B": 126.9, "type_C": 135.9, "type_D": 120.9, "type_A": 122.9, "address": "3405 Glen Erin Dr, Mississauga, ON L5L 3S2, Canada", "longitude": -79.6851202, "latitude": 43.5365482}, "3143 Winston Churchill Blvd , Mississauga, Ontario": {"name": "Canadian Tire", "type_B": 126.9, "type_C": 131.9, "type_D": 114.8, "type_A": 116.9, "address": "3143 Winston Churchill Blvd, Mississauga, ON L5L 2W1, Canada", "longitude": -79.6847442, "latitude": 43.5256881}, "2688 Dundas St W , Mississauga, Ontario": {"name": "Esso", "type_B": 127.9, "type_C": 133.9, "type_D": 114.9, "type_A": 122.9, "address": "2688 Dundas St W, Mississauga, ON L5K 1S1, Canada", "longitude": -79.6809719, "latitude": 43.5227188}, "3425 Winston Churchill Blvd , Mississauga, Ontario": {"name": "Petro-Canada", "type_B": 129.9, "type_C": 135.9, "type_A": 116.9, "address": "3425 Winston Churchill Blvd, Mississauga, ON L5L 3R5, Canada", "longitude": -79.6927151, "latitude": 43.5313652}, "4140 Erin Mills Pkwy , Mississauga, Ontario": {"name": "Petro-Canada", "type_B": 130.9, "type_C": 136.9, "type_A": 122.9, "address": "4140 Erin Mills Pkwy, Mississauga, ON L5L 2M1, Canada", "longitude": -79.69092479999999, "latitude": 43.5508084}, "2100 Burnhamthorpe Rd W , Mississauga, Ontario": {"name": "Petro-Canada", "type_B": 130.9, "type_C": 136.9, "type_A": 122.9, "address": "2100 Burnhamthorpe Rd W, Mississauga, ON L5L 3N1, Canada", "longitude": -79.6823548, "latitude": 43.5465124}, "1260 Eglinton Ave W , Mississauga, Ontario": {"name": "Shell", "type_B": 136.9, "type_C": 144.9, "type_A": 122.9, "address": "1260 Eglinton Ave W, Mississauga, ON L5V 1H8, Canada", "longitude": -79.6844179, "latitude": 43.5778286}, "2805 Eglinton Ave W , Mississauga, Ontario": {"name": "Loblaws", "type_D": 114.6, "type_A": 116.9, "address": "2805 Eglinton Ave W, Mississauga, ON L5M 6J3, Canada", "longitude": -79.7144845, "latitude": 43.5519793}, "6015 McLaughlin Rd , Mississauga, Ontario": {"name": "Husky", "type_D": 118.9, "type_A": 119.9, "type_B": 125.9, "type_C": 131.9, "address": "6015 McLaughlin Rd, Mississauga, ON L5R 1B9, Canada", "longitude": -79.69009799999999, "latitude": 43.61757799999999}, "3255 Dundas St W , Mississauga, Ontario": {"name": "Shell", "type_D": 118.9, "type_A": 116.9, "type_B": 129.9, "type_C": 137.9, "address": "3255 Dundas St W, Mississauga, ON L5L 5V7, Canada", "longitude": -79.6880539, "latitude": 43.5175294}, "5980 Mavis Rd , Mississauga, Ontario": {"name": "Canadian Tire", "type_D": 119.6, "type_B": 134.9, "type_A": 122.9, "address": "5980 Mavis Rd, Mississauga, ON L5V 2P5, Canada", "longitude": -79.69551299999999, "latitude": 43.611337}, "3020 Unity Dr , Mississauga, Ontario": {"name": "Shell", "type_D": 119.9, "type_A": 117.0, "type_B": 130.9, "type_C": 138.9, "address": "3020 Unity Dr, Mississauga, ON L5L 4X5, Canada", "longitude": -79.7051783, "latitude": 43.539076}, "7015 Kennedy Rd , Mississauga, Ontario": {"name": "Petro-Canada", "type_A": 122.9, "type_B": 123.9, "type_C": 129.9, "type_D": 120.9, "address": "7015 Kennedy Rd, Mississauga, ON L5S 0A4, Canada", "longitude": -79.6952895, "latitude": 43.6565637}, "480 Derry Rd E , Mississauga, Ontario": {"name": "Esso", "type_A": 122.9, "type_B": 135.9, "type_C": 141.9, "address": "480 Derry Rd E, Mississauga, ON L5T 2P3, Canada", "longitude": -79.6952926, "latitude": 43.65504019999999}, "6985 Hurontario St , Mississauga, Ontario": {"name": "Shell", "type_B": 134.9, "type_C": 140.9, "type_D": 118.9, "type_A": 122.9, "address": "6985 Hurontario St, Mississauga, ON L5T 2Z6, Canada", "longitude": -79.705295, "latitude": 43.6461816}, "6990 Hurontario St  , Mississauga, Ontario": {"name": "Husky", "type_B": 134.9, "type_C": 140.9, "type_D": 118.7, "type_A": 122.7, "address": "6990 Hurontario St, Mississauga, ON L5W 1N5, Canada", "longitude": -79.7060906, "latitude": 43.6453206}, "7155 Hurontario St , Mississauga, Ontario": {"name": "Good Guys Gas Bar", "type_B": 134.9, "type_C": 140.9, "type_D": 118.9, "type_A": 122.9, "address": "7155 Hurontario St, Mississauga, ON L5S 1Z8, Canada", "longitude": -79.7093225, "latitude": 43.6495301}, "780 Bancroft Dr , Mississauga, Ontario": {"name": "Esso", "type_B": 135.9, "type_C": 141.9, "type_D": 119.9, "type_A": 119.9, "address": "780 Bancroft Dr, Mississauga, ON L5V 2Y6, Canada", "longitude": -79.7026949, "latitude": 43.61637169999999}, "745 Courtneypark Dr W , Mississauga, Ontario": {"name": "Shell", "type_D": 118.9, "type_A": 122.9, "type_B": 135.9, "address": "745 Courtneypark Dr W, Mississauga, ON L5W 1L9, Canada", "longitude": -79.71187309999999, "latitude": 43.6244025}, "450 Derry Rd W , Mississauga, Ontario": {"name": "Petro-Canada", "type_D": 120.9, "type_B": 128.9, "type_C": 134.9, "type_A": 122.9, "address": "450 Derry Rd W, Mississauga, ON L5W, Canada", "longitude": -79.7160364, "latitude": 43.6368827}, "4641 Hwy 7 E , Markham, Ontario": {"name": "Petro-Canada", "type_A": 122.9, "address": "4641 Hwy 7, Unionville, ON L3R 1M6, Canada", "longitude": -79.3042024, "latitude": 43.8620968}, "380 Main St N , Markham, Ontario": {"name": "Esso", "type_A": 115.9, "type_B": 129.9, "type_C": 134.9, "address": "380 Main St N, Markham, ON L3P 1Z4, Canada", "longitude": -79.264298, "latitude": 43.891625}, "5 Main St N , Markham, Ontario": {"name": "Husky", "type_A": 119.3, "type_B": 135.9, "type_C": 141.9, "address": "5 Main St N, Markham, ON L3P 1X3, Canada", "longitude": -79.2595195, "latitude": 43.8743236}, "5965 Hwy 7 E , Markham, Ontario": {"name": "Esso", "type_A": 119.6, "type_B": 131.9, "type_C": 141.9, "address": "5965 Hwy 7, Markham, ON L3P 1A1, Canada", "longitude": -79.26047419999999, "latitude": 43.8733282}, "5706 Hwy 7 E , Markham, Ontario": {"name": "Shell", "type_A": 119.9, "address": "5706 Hwy 7, Markham, ON L3P 1B4, Canada", "longitude": -79.2684865, "latitude": 43.8715419}, "5739 Hwy 7 E , Markham, Ontario": {"name": "Petro-Canada", "type_A": 119.9, "address": "5739 Hwy 7, Markham, ON L3P 1A9, Canada", "longitude": -79.2670775, "latitude": 43.8710426}, "550 Bur Oak Ave , Markham, Ontario": {"name": "Esso", "type_A": 122.9, "type_B": 128.9, "type_C": 134.9, "address": "550 Bur Oak Ave, Markham, ON L6C 0C4, Canada", "longitude": -79.2918899, "latitude": 43.8950699}, "8675 McCowan Rd , Markham, Ontario": {"name": "Canadian Tire", "type_A": 122.9, "type_B": 129.9, "type_C": 134.9, "address": "8675 McCowan Rd, Markham, ON L3P 4H1, Canada", "longitude": -79.2838739, "latitude": 43.8725304}, "9270 McCowan Rd , Markham, Ontario": {"name": "Shell", "type_A": 122.9, "type_B": 129.9, "type_C": 137.9, "type_D": 120.9, "address": "9270 McCowan Rd, Markham, ON L6C 2L1, Canada", "longitude": -79.289678, "latitude": 43.8855693}, "5315 Major Mackenzie Dr E , Markham, Ontario": {"name": "Petro-Canada", "type_A": 122.9, "type_B": 131.8, "type_C": 137.9, "type_D": 120.9, "address": "5315 Major Mackenzie Dr E, Markham, ON L3P 3J3, Canada", "longitude": -79.2926094, "latitude": 43.9033582}, "7750 McCowan Rd , Markham, Ontario": {"name": "Petro-Canada", "type_A": 122.9, "address": "7750 McCowan Rd, Markham, ON L3S 3J4, Canada", "longitude": -79.280446, "latitude": 43.8485162}, "7314 Markham Rd , Markham, Ontario": {"name": "Petro-Canada", "type_A": 122.9, "address": "7314 Markham Rd, Markham, ON L3S 0B1, Canada", "longitude": -79.2535638, "latitude": 43.8447331}, "7660 Markham Rd , Markham, Ontario": {"name": "Canadian Tire", "type_A": 122.9, "address": "7660 Markham Rd, Markham, ON L3S 4S1, Canada", "longitude": -79.25531459999999, "latitude": 43.8521768}, "7635 Markham Rd , Markham, Ontario": {"name": "Petro-Canada", "type_A": 122.9, "address": "7635 Markham Rd, Markham, ON L3S 3J9, Canada", "longitude": -79.25376729999999, "latitude": 43.8517696}, "11087 Woodbine Ave , Markham, Ontario": {"name": "Race Trac", "type_B": 126.9, "type_C": 132.9, "type_D": 120.9, "type_A": 115.9, "address": "11087 Woodbine Ave, Markham, ON L6C 1J4, Canada", "longitude": -79.37284609999999, "latitude": 43.9117048}, "5995 Major Mackenzie Dr E , Markham, Ontario": {"name": "Esso", "type_B": 127.9, "type_C": 133.9, "type_D": 119.9, "type_A": 114.9, "address": "5995 Major Mackenzie Dr E, Markham, ON L6E 0G1, Canada", "longitude": -79.26872949999999, "latitude": 43.9094534}, "9249 9th Ln , Markham, Ontario": {"name": "Petro-Canada", "type_D": 119.9, "type_A": 115.9, "type_B": 128.9, "type_C": 137.9, "address": "The Ninth Line Baptist Church, Markham Rd, Markham, ON L3P 3J3, Canada", "longitude": -79.2668961, "latitude": 43.8938075}, "371 Queen St S , Mississauga, Ontario": {"name": "Husky", "type_B": 127.9, "type_C": 134.9, "type_A": 122.7, "address": "371 Queen St S, Mississauga, ON L5M 1M3, Canada", "longitude": -79.7047757, "latitude": 43.5754739}, "6035 Creditview Rd , Mississauga, Ontario": {"name": "Petro-Canada", "type_D": 120.9, "type_B": 132.9, "type_C": 138.9, "type_A": 122.9, "address": "6035 Creditview Rd, Mississauga, ON L5V 2A8, Canada", "longitude": -79.7120551, "latitude": 43.5981355}, "21 Innovation Dr , Vaughan, Ontario": {"name": "Petro-Canada", "type_A": 118.9, "address": "21 Innovation Dr, Vaughan, ON L4H 0S3, Canada", "longitude": -79.6259335, "latitude": 43.7879827}, "3550 Queen St E , Brampton, Ontario": {"name": "Shell", "type_D": 120.9, "type_B": 130.9, "type_C": 138.9, "type_A": 118.6, "address": "3550 Queen St E, Brampton, ON L6P 3L2, Canada", "longitude": -79.68467749999999, "latitude": 43.7538419}, "8980 Goreway Dr , Brampton, Ontario": {"name": "Petro-Canada", "type_D": 120.9, "type_C": 137.9, "type_A": 118.6, "address": "8980 Goreway Dr, Brampton, ON L6T 0C4, Canada", "longitude": -79.6845668, "latitude": 43.752286}, "11151 Yonge St , Richmond Hill, Ontario": {"name": "Shell", "type_D": 118.9, "address": "11151 Yonge St, Richmond Hill, ON L4S 1L2, Canada", "longitude": -79.4428939, "latitude": 43.8991366}, "2956 Queen St E , Brampton, Ontario": {"name": "Ultramar", "type_B": 132.5, "type_D": 109.9, "type_C": 135.5, "type_A": 118.5, "address": "2956 Queen St E, Brampton, ON L6S 5Y1, Canada", "longitude": -79.6974807, "latitude": 43.7429977}, "2963 Queen St E , Brampton, Ontario": {"name": "Esso", "type_B": 135.9, "type_C": 141.9, "type_D": 119.9, "type_A": 118.6, "address": "2963 Queen St E, Brampton, ON L6T 5J1, Canada", "longitude": -79.6959814, "latitude": 43.7427128}, "704 Kingston Rd , Pickering, Ontario": {"name": "Petro-Canada", "type_A": 118.9, "type_B": 127.9, "type_C": 138.9, "address": "704 Kingston Rd, Pickering, ON L1V 1A8, Canada", "longitude": -79.1152825, "latitude": 43.8196668}, "698 Kingston Rd , Pickering, Ontario": {"name": "Shell", "type_A": 118.9, "type_B": 132.9, "type_C": 140.9, "type_D": 126.9, "address": "698 Kingston Rd, Pickering, ON L1V 1A6, Canada", "longitude": -79.1163339, "latitude": 43.8190773}, "340 Kingston Rd , Pickering, Ontario": {"name": "Petro Queen", "type_A": 119.9, "address": "340 Kingston Rd, Pickering, ON L1V 1A2, Canada", "longitude": -79.13058199999999, "latitude": 43.809205}, "478 Kingston Rd , Pickering, Ontario": {"name": "Esso", "type_A": 121.9, "type_B": 132.5, "type_C": 138.5, "type_D": 118.6, "address": "478 Kingston Rd, Pickering, ON L1V 1A4, Canada", "longitude": -79.12435099999999, "latitude": 43.81295}, "898 Kingston Rd , Pickering, Ontario": {"name": "Global", "type_A": 121.9, "type_C": 134.9, "type_D": 118.9, "address": "898 Kingston Rd, Pickering, ON L1V 1A8, Canada", "longitude": -79.10749, "latitude": 43.824076}, "935 Liverpool Rd , Pickering, Ontario": {"name": "Shell", "type_B": 125.9, "type_C": 133.9, "type_D": 119.9, "type_A": 112.4, "address": "935 Liverpool Rd, Pickering, ON L1W 1S7, Canada", "longitude": -79.08691189999999, "latitude": 43.8285478}, "1799 Liverpool Rd , Pickering, Ontario": {"name": "Esso", "type_B": 135.9, "type_C": 141.9, "type_D": 118.9, "type_A": 122.9, "address": "1799 Liverpool Rd, Pickering, ON L1V 1W2, Canada", "longitude": -79.0890648, "latitude": 43.8338933}, "1299 Kingston Rd , Pickering, Ontario": {"name": "Petro-Canada", "type_B": 135.9, "type_C": 141.9, "type_A": 122.9, "address": "1299 Kingston Rd, Pickering, ON L1V 1B5, Canada", "longitude": -79.0908245, "latitude": 43.8348502}, "701 Krosno Blvd , Pickering, Ontario": {"name": "Petro-Canada", "type_D": 119.9, "type_A": 119.7, "address": "701 Krosno Blvd, Pickering, ON L1W 1G4, Canada", "longitude": -79.0839809, "latitude": 43.82183630000001}, "1695 Bayly St , Pickering, Ontario": {"name": "Petro-Canada", "type_D": 120.9, "type_B": 133.9, "type_C": 139.9, "type_A": 113.6, "address": "1695 Bayly St, Pickering, ON L1W 2Z1, Canada", "longitude": -79.068088, "latitude": 43.832248}, "8480 Hwy 27 , Vaughan, Ontario": {"name": "Petro-Canada", "type_A": 118.9, "address": "8480 Hwy 27, Woodbridge, ON L4H 0A7, Canada", "longitude": -79.6268029, "latitude": 43.7907695}, "9301 Hwy 50 , Vaughan, Ontario": {"name": "Petro-Canada", "type_A": 122.9, "type_B": 135.9, "type_C": 141.9, "address": "9301 Hwy 50, Woodbridge, ON L4H 2Y5, Canada", "longitude": -79.668931, "latitude": 43.802868}, "8525 Hwy 27 , Vaughan, Ontario": {"name": "Esso", "type_A": 118.9, "address": "8525 Hwy 27, Woodbridge, ON L4L 1A7, Canada", "longitude": -79.6256703, "latitude": 43.7920212}, "7491 Nashville Rd , Vaughan, Ontario": {"name": "Esso", "type_A": 122.9, "type_B": 136.9, "type_C": 142.9, "type_D": 114.9, "address": "7491 Nashville Rd, Vaughan, ON L4H 3N5, Canada", "longitude": -79.68776919999999, "latitude": 43.8362648}, "Hwy 50 , Caledon, Ontario": {"name": "Shell", "type_C": 138.7, "type_D": 118.9, "type_A": 121.5, "address": "Hwy 50, Caledon, ON, Canada", "longitude": -79.7491119, "latitude": 43.8873864}, "10579 Yonge St , Richmond Hill, Ontario": {"name": "Esso", "type_A": 122.9, "address": "10579 Yonge St, Richmond Hill, ON L4C 3C5, Canada", "longitude": -79.4400301, "latitude": 43.8853601}, "2210 Stouffville Rd , Whitchurch-Stouffville, Ontario": {"name": "Husky", "type_D": 112.7, "type_A": 118.9, "type_B": 132.9, "type_C": 139.9, "address": "2210 Stouffville Rd, Whitchurch-Stouffville, ON L0H 1G0, Canada", "longitude": -79.3800416, "latitude": 43.94261729999999}, "12338 Yonge St , Richmond Hill, Ontario": {"name": "Esso", "type_D": 119.9, "type_A": 114.9, "type_B": 127.9, "type_C": 133.9, "address": "12338 Yonge St, Richmond Hill, ON L4C 6Z6, Canada", "longitude": -79.4519918, "latitude": 43.9285237}, "8044 Dixie Rd , Brampton, Ontario": {"name": "Esso", "type_B": 127.9, "type_C": 136.9, "type_D": 117.9, "type_A": 119.9, "address": "8044 Dixie Rd, Brampton, ON L6T 5C3, Canada", "longitude": -79.7085055, "latitude": 43.699351}, "7998 Dixie Rd , Brampton, Ontario": {"name": "Husky", "type_B": 130.9, "type_C": 137.9, "type_D": 118.7, "type_A": 122.7, "address": "7998 Dixie Rd, Brampton, ON L6T 4K7, Canada", "longitude": -79.7009209, "latitude": 43.69435499999999}, "7995 Dixie Rd , Brampton, Ontario": {"name": "Petro-Canada", "type_B": 132.9, "type_C": 138.9, "type_D": 122.9, "type_A": 122.9, "address": "7995 Dixie Rd, Brampton, ON L6T, Canada", "longitude": -79.7008737, "latitude": 43.6949949}, "12 Orchard Dr , Brampton, Ontario": {"name": "XTR", "type_A": 119.9, "address": "12 Orchard Dr, Brampton, ON L6W 2V6, Canada", "longitude": -79.72548859999999, "latitude": 43.67410030000001}, "7995 Kennedy Rd S , Brampton, Ontario": {"name": "Esso", "type_A": 122.9, "type_B": 135.9, "type_C": 141.9, "type_D": 119.9, "address": "7995 Kennedy Rd S, Brampton, ON L6V 3N2, Canada", "longitude": -79.7219374, "latitude": 43.6756805}, "7890 Hurontario St , Brampton, Ontario": {"name": "Petro V Plus", "type_B": 131.9, "type_C": 137.9, "type_D": 117.5, "type_A": 119.7, "address": "7890 Hurontario St, Brampton, ON L6Y 0C7, Canada", "longitude": -79.7304095, "latitude": 43.663249}, "253 Kennedy Rd S , Brampton, Ontario": {"name": "Husky", "type_B": 133.9, "type_C": 139.9, "type_D": 117.7, "type_A": 122.5, "address": "253 Kennedy Rd S, Brampton, ON L6W 3H1, Canada", "longitude": -79.72813599999999, "latitude": 43.679167}, "7756 Hurontario St , Brampton, Ontario": {"name": "Shell", "type_B": 134.9, "type_C": 140.9, "type_A": 122.9, "address": "7756 Hurontario St, Brampton, ON L6Y 0C7, Canada", "longitude": -79.7282766, "latitude": 43.6617165}, "7990 Hurontario St , Brampton, Ontario": {"name": "Husky", "type_B": 134.9, "type_C": 140.9, "type_D": 118.7, "type_A": 122.5, "address": "7990 Hurontario St, Brampton, ON L6Y 0B8, Canada", "longitude": -79.73315529999999, "latitude": 43.66523369999999}, "7030 McLaughlin Rd , Mississauga, Ontario": {"name": "Esso", "type_C": 134.9, "type_A": 115.5, "type_B": 128.9, "address": "7030 McLaughlin Rd, Mississauga, ON L5W 1W7, Canada", "longitude": -79.71777300000001, "latitude": 43.6365572}, "1740 Bayly St , Pickering, Ontario": {"name": "Husky", "type_B": 130.5, "type_C": 137.5, "type_D": 112.7, "type_A": 113.6, "address": "1740 Bayly St, Pickering, ON L1W 3N3, Canada", "longitude": -79.0653423, "latitude": 43.8339811}, "1709 Kingston Rd , Pickering, Ontario": {"name": "Petro-Canada", "type_B": 135.9, "type_C": 141.9, "type_D": 120.9, "type_A": 122.9, "address": "1709 Kingston Rd, Pickering, ON L1V 1C5, Canada", "longitude": -79.0732376, "latitude": 43.8478407}, "1735 Pickering Pkwy , Pickering, Ontario": {"name": "Canadian Tire", "type_C": 136.9, "type_A": 122.9, "address": "1735 Pickering Pkwy, Pickering, ON L1V 7C7, Canada", "longitude": -79.07042589999999, "latitude": 43.8427024}, "1800 Brock Rd , Pickering, Ontario": {"name": "Petro-Canada", "type_C": 141.9, "type_D": 120.9, "type_A": 122.9, "address": "1800 Brock Rd, Pickering, ON L1V 4G2, Canada", "longitude": -79.072724, "latitude": 43.8431456}, "474 Bayly St W , Ajax, Ontario": {"name": "Petro-Canada", "type_D": 119.9, "type_A": 113.6, "type_C": 136.9, "address": "474 Bayly St W, Ajax, ON L1S 7P9, Canada", "longitude": -79.03599249999999, "latitude": 43.8405724}, "12871 Yonge St , Richmond Hill, Ontario": {"name": "Petro-Canada", "type_B": 128.9, "type_C": 134.9, "type_D": 122.9, "type_A": 115.6, "address": "12871 Yonge St, Richmond Hill, ON L4E 0K8, Canada", "longitude": -79.453418, "latitude": 43.941345}, "12891 Yonge St , Richmond Hill, Ontario": {"name": "Ultramar", "type_B": 130.9, "type_C": 133.9, "type_A": 113.9, "address": "12891 Yonge St, Richmond Hill, ON L4E 0T7, Canada", "longitude": -79.453623, "latitude": 43.9424838}, "1700 King Rd , King Township, Ontario": {"name": "Shell", "type_B": 136.9, "type_D": 118.9, "type_A": 119.9, "address": "1700 King Rd, King City, ON L7B, Canada", "longitude": -79.5076532, "latitude": 43.9343602}, "13094 Yonge St , Richmond Hill, Ontario": {"name": "Pioneer", "type_C": 130.9, "type_D": 118.9, "type_A": 113.9, "address": "13094 Yonge St, Richmond Hill, ON L4E 0K2, Canada", "longitude": -79.4556877, "latitude": 43.9468099}, "12985 Bathurst St , Richmond Hill, Ontario": {"name": "Shell", "type_D": 119.9, "type_A": 118.9, "address": "12985 Bathurst St, Richmond Hill, ON L4E 3N2, Canada", "longitude": -79.4808175, "latitude": 43.9385471}, "2182 Queen St E , Brampton, Ontario": {"name": "Husky", "type_A": 122.7, "type_B": 129.9, "type_C": 136.9, "address": "2182 Queen St E, Brampton, ON L6S 4G9, Canada", "longitude": -79.7131825, "latitude": 43.7284364}, "1707 Queen St E , Brampton, Ontario": {"name": "Pioneer", "type_B": 129.1, "type_C": 136.6, "type_D": 111.6, "type_A": 119.6, "address": "1707 Queen St E, Brampton, ON L6T 2H2, Canada", "longitude": -79.7182067, "latitude": 43.72303429999999}, "145 Clark Blvd , Brampton, Ontario": {"name": "Esso", "type_B": 130.9, "type_C": 138.9, "type_D": 118.9, "type_A": 119.6, "address": "145 Clark Blvd, Brampton, ON L6T 4G6, Canada", "longitude": -79.7268527, "latitude": 43.7045053}, "2001 North Park Dr , Brampton, Ontario": {"name": "Shell", "type_B": 132.9, "type_C": 140.9, "type_A": 122.9, "address": "2001 N Park Dr, Brampton, ON L6S 5Z9, Canada", "longitude": -79.7266849, "latitude": 43.74855549999999}, "9431 Torbram Rd , Brampton, Ontario": {"name": "Petro-Canada", "type_B": 132.9, "type_C": 138.9, "type_A": 122.7, "address": "9431 Torbram Rd, Brampton, ON L6S 6E6, Canada", "longitude": -79.7193303, "latitude": 43.7441299}, "9495 Airport Rd , Brampton, Ontario": {"name": "Petro-Canada", "type_B": 135.9, "type_C": 141.9, "type_D": 117.6, "type_A": 118.9, "address": "9495 Airport Rd, Brampton, ON L6S 6C7, Canada", "longitude": -79.7090369, "latitude": 43.7539072}, "1235 Williams Pkwy E , Brampton, Ontario": {"name": "Shell", "type_B": 136.9, "type_A": 122.9, "type_C": 144.9, "type_D": 120.9, "address": "1235 Williams Pkwy, Brampton, ON L6S 3K6, Canada", "longitude": -79.74224579999999, "latitude": 43.7247095}, "118 Orenda Rd , Brampton, Ontario": {"name": "Econo", "type_D": 119.9, "type_A": 122.9, "type_C": 139.9, "address": "118 Orenda Rd, Brampton, ON L6W 3W6, Canada", "longitude": -79.7348611, "latitude": 43.6952281}, "9919 Airport Rd , Brampton, Ontario": {"name": "Shell", "type_D": 119.9, "type_A": 119.6, "type_C": 141.9, "address": "9919 Airport Rd, Brampton, ON L6S, Canada", "longitude": -79.7188894, "latitude": 43.7608291}, "2695 Credit Valley Rd , Mississauga, Ontario": {"name": "Shell", "type_A": 116.9, "address": "2695 Credit Valley Rd, Mississauga, ON L5M 4S1, Canada", "longitude": -79.714411, "latitude": 43.5472988}, "3030 Artesian Dr , Mississauga, Ontario": {"name": "Petro-Canada", "type_A": 117.2, "type_D": 122.9, "address": "3030 Artesian Dr, Mississauga, ON L5M 7P5, Canada", "longitude": -79.7145558, "latitude": 43.5462225}, "4530 Erin Mills Pkwy , Mississauga, Ontario": {"name": "Esso", "type_A": 118.2, "type_B": 130.9, "type_C": 136.9, "address": "4530 Erin Mills Pkwy, Mississauga, ON L5M 4L9, Canada", "longitude": -79.7027651, "latitude": 43.5563885}, "2200 Credit Valley Rd , Mississauga, Ontario": {"name": "Petro-Canada", "type_A": 122.9, "type_B": 132.9, "type_C": 138.9, "address": "2200 Credit Valley Rd, Mississauga, ON L5M 3C9, Canada", "longitude": -79.7011924, "latitude": 43.5566887}, "2969 Sherwood Heights Dr , Oakville, Ontario": {"name": "Petro-Canada", "type_A": 122.9, "address": "2969 Sherwood Heights Dr, Oakville, ON L6J 7N4, Canada", "longitude": -79.6621146, "latitude": 43.5071796}, "2525 Thomas St , Mississauga, Ontario": {"name": "Shell", "type_A": 122.9, "type_B": 131.9, "type_C": 139.9, "address": "2525 Thomas St, Mississauga, ON L5M 5J3, Canada", "longitude": -79.7236171, "latitude": 43.5698127}, "3015 Thomas St , Mississauga, Ontario": {"name": "Pioneer", "type_B": 124.1, "type_C": 131.6, "type_D": 118.6, "type_A": 116.6, "address": "3015 Thomas St, Mississauga, ON L5M 0R4, Canada", "longitude": -79.73470809999999, "latitude": 43.5607037}, "1520 Britannia Rd W , Mississauga, Ontario": {"name": "Petro-Canada", "type_B": 130.9, "type_C": 139.9, "type_A": 122.9, "address": "1520 Britannia Rd W, Mississauga, ON L5M 6A1, Canada", "longitude": -79.7119656, "latitude": 43.5969016}, "2520 Britannia Rd W , Mississauga, Ontario": {"name": "Esso", "type_B": 130.9, "type_C": 136.9, "type_A": 122.9, "address": "2520 Britannia Rd W, Mississauga, ON L5M 5X7, Canada", "longitude": -79.73317709999999, "latitude": 43.5777971}, "5585 Winston Churchill Blvd , Mississauga, Ontario": {"name": "Esso", "type_B": 130.9, "type_C": 136.9, "type_A": 117.9, "address": "5585 Winston Churchill Blvd, Mississauga, ON L5M 7P6, Canada", "longitude": -79.7326803, "latitude": 43.5607615}, "2990 Britannia Rd W , Mississauga, Ontario": {"name": "Petro-Canada", "type_B": 134.9, "type_C": 140.9, "type_A": 122.9, "address": "2990 Britannia Rd W, Mississauga, ON L5M 5P3, Canada", "longitude": -79.7434607, "latitude": 43.568723}, "26 Queen St N , Mississauga, Ontario": {"name": "Petro-Canada", "type_C": 141.9, "type_A": 122.9, "address": "26 Queen St N, Mississauga, ON L5N 1A1, Canada", "longitude": -79.7239603, "latitude": 43.5887772}, "6707 Winston Churchill Blvd , Mississauga, Ontario": {"name": "Canadian Tire", "type_D": 116.8, "type_A": 122.9, "type_B": 129.1, "type_C": 134.1, "address": "6707 Winston Churchill Blvd, Mississauga, ON L5N 3W2, Canada", "longitude": -79.7627637, "latitude": 43.5828152}, "1537 Trafalgar Rd , Oakville, Ontario": {"name": "Husky", "type_D": 118.7, "type_A": 119.6, "type_B": 131.9, "type_C": 139.9, "address": "1537 Trafalgar Rd, Oakville, ON L6H 7H3, Canada", "longitude": -79.7011921, "latitude": 43.4750132}, "305 Dundas St E , Oakville, Ontario": {"name": "Esso", "type_D": 118.9, "type_A": 122.9, "type_B": 135.9, "type_C": 141.9, "address": "305 Dundas St E, Oakville, ON L6H 7C3, Canada", "longitude": -79.7202243, "latitude": 43.4876955}, "325 Dundas St E , Oakville, Ontario": {"name": "Shell", "type_D": 118.9, "type_A": 122.9, "type_B": 135.9, "type_C": 143.9, "address": "325 Dundas St E, Oakville, ON L6H 7E3, Canada", "longitude": -79.71959009999999, "latitude": 43.4885008}, "450 Dundas St E , Oakville, Ontario": {"name": "Petro-Canada", "type_D": 119.9, "type_A": 122.9, "type_B": 135.9, "type_C": 141.9, "address": "450 Dundas St E, Oakville, ON L6H 7L4, Canada", "longitude": -79.7156775, "latitude": 43.4907775}, "6400 Erin Mills Pkwy , Mississauga, Ontario": {"name": "Petro-Canada", "type_D": 122.9, "type_B": 131.9, "type_C": 137.9, "type_A": 122.9, "address": "6400 Erin Mills Pkwy, Mississauga, ON L5N 3P3, Canada", "longitude": -79.7430655, "latitude": 43.5860662}, "57 Queen St N , Mississauga, Ontario": {"name": "Streetsville Gas", "type_A": 118.9, "address": "57 Queen St N, Mississauga, ON L5N 1A2, Canada", "longitude": -79.724514, "latitude": 43.5901764}, "2330 Battleford Rd , Mississauga, Ontario": {"name": "7-Eleven", "type_B": 129.9, "type_C": 135.9, "type_A": 122.6, "address": "2330 Battleford Rd, Mississauga, ON L5N 3K6, Canada", "longitude": -79.740741, "latitude": 43.585512}, "160 Main St S , Brampton, Ontario": {"name": "Esso", "type_A": 120.7, "type_B": 133.9, "type_C": 139.9, "type_D": 117.9, "address": "160 Main St S, Brampton, ON L6Y 1N2, Canada", "longitude": -79.7473693, "latitude": 43.6779598}, "471 Main St S , Brampton, Ontario": {"name": "Petro-Canada", "type_A": 121.5, "type_B": 133.9, "type_C": 139.9, "type_D": 120.9, "address": "471 Main St S, Brampton, ON L6Y 1N6, Canada", "longitude": -79.738164, "latitude": 43.66893}, "354 Queen St E , Brampton, Ontario": {"name": "Petro-Canada", "type_A": 122.9, "type_B": 132.9, "type_C": 138.9, "type_D": 120.9, "address": "354 Queen St E, Brampton, ON L6V 1C3, Canada", "longitude": -79.7415348, "latitude": 43.7035172}, "130 Queen St E , Brampton, Ontario": {"name": "Speedy Gas", "type_A": 125.9, "type_D": 117.9, "address": "130 Queen St E, Brampton, ON L6V 1B1, Canada", "longitude": -79.755163, "latitude": 43.690655}, "7970 Mavis Rd , Brampton, Ontario": {"name": "Esso", "type_D": 118.9, "type_B": 130.9, "type_C": 136.9, "type_A": 122.9, "address": "7970 Mavis Rd, Brampton, ON L6Y 5L5, Canada", "longitude": -79.7545554, "latitude": 43.6461032}, "350 Iroquois Shore Rd , Oakville, Ontario": {"name": "Petro-Canada", "type_A": 119.9, "type_B": 134.9, "type_C": 140.9, "type_D": 120.9, "address": "350 Iroquois Shore Rd, Oakville, ON L6H 1M4, Canada", "longitude": -79.6857914, "latitude": 43.4644014}, "562 Trafalgar Rd , Oakville, Ontario": {"name": "Esso", "type_A": 121.9, "address": "562 Trafalgar Rd, Oakville, ON L6J 3J2, Canada", "longitude": -79.6821178, "latitude": 43.4580411}, "1123 Dorval Dr , Oakville, Ontario": {"name": "Petro-Canada", "type_A": 122.9, "type_B": 135.9, "type_C": 141.9, "address": "1123 Dorval Dr, Oakville, ON L6M 3H9, Canada", "longitude": -79.70438120000001, "latitude": 43.4497702}, "1100 Kerr St , Oakville, Ontario": {"name": "Canadian Tire", "type_A": 122.9, "type_B": 132.9, "type_C": 137.9, "type_D": 118.9, "address": "1100 Kerr St, Oakville, ON L6M 0L4, Canada", "longitude": -79.6990077, "latitude": 43.4498099}, "2300 Royal Windsor Dr , Oakville, Ontario": {"name": "Petro-Canada", "type_A": 122.9, "address": "2300 Royal Windsor Dr, Oakville, ON L6J 7Y1, Canada", "longitude": -79.65205979999999, "latitude": 43.489626}, "1007 Upper Middle Rd E , Oakville, Ontario": {"name": "Petro-Canada", "type_A": 122.9, "type_B": 133.9, "type_C": 139.9, "address": "1007 Upper Middle Rd E, Oakville, ON L6H 4L1, Canada", "longitude": -79.6954899, "latitude": 43.4812102}, "412 Dundas St E , Oakville, Ontario": {"name": "Canadian Tire", "type_A": 122.9, "type_B": 130.9, "type_C": 135.9, "address": "412 Dundas St E, Oakville, ON L6H 6Z9, Canada", "longitude": -79.7165545, "latitude": 43.4902232}, "541 Maple Grove Dr , Oakville, Ontario": {"name": "Esso", "type_A": 122.9, "address": "541 Maple Grove Dr, Oakville, ON L6J 7M9, Canada", "longitude": -79.65812849999999, "latitude": 43.4801913}, "3965 Thomas St , Mississauga, Ontario": {"name": "7-Eleven", "type_B": 125.6, "type_C": 132.6, "type_A": 116.7, "address": "3965 Thomas St, Mississauga, ON L5M 7B8, Canada", "longitude": -79.7516852, "latitude": 43.5492984}, "1499 Upper Middle Rd  , Oakville, Ontario": {"name": "Esso", "type_B": 135.9, "type_A": 122.9, "type_C": 141.9, "address": "1499 Upper Middle Rd W, Oakville, ON L6M 3Y3, Canada", "longitude": -79.7434176, "latitude": 43.4382177}, "1020 Dundas St W , Oakville, Ontario": {"name": "Petro-Canada", "type_B": 135.9, "type_C": 141.9, "type_A": 122.9, "address": "1020 Dundas St W, Oakville, ON L6H 6Z6, Canada", "longitude": -79.7450882, "latitude": 43.4641068}, "520 Dundas St W , Oakville, Ontario": {"name": "Esso", "type_B": 135.9, "type_C": 141.9, "type_D": 119.9, "type_A": 122.9, "address": "520 Dundas St W, Oakville, ON L6H 6Y3, Canada", "longitude": -79.74432920000001, "latitude": 43.464762}, "625 Third Line , Oakville, Ontario": {"name": "Husky", "type_D": 118.7, "type_A": 117.6, "address": "625 Third Line, Oakville, ON L6L 4A8, Canada", "longitude": -79.7168566, "latitude": 43.41876}, "1528 Dundas St W , Oakville, Ontario": {"name": "Shell", "type_D": 118.9, "type_A": 122.9, "type_B": 134.9, "type_C": 142.9, "address": "1528 Dundas St W, Oakville, ON L6M 4H8, Canada", "longitude": -79.75972990000001, "latitude": 43.4502099}, "624 Third Line  , Oakville, Ontario": {"name": "Esso", "type_D": 119.9, "type_A": 117.9, "type_B": 134.9, "address": "624 Third Line, Oakville, ON L6L 4A7, Canada", "longitude": -79.71739459999999, "latitude": 43.4187145}, "6375 Major Mackenzie Dr E , Markham, Ontario": {"name": "Pioneer", "type_A": 114.6, "type_B": 127.1, "type_C": 134.6, "address": "6375 Major Mackenzie Dr E, Markham, ON L3P 3J3, Canada", "longitude": -79.2568296, "latitude": 43.91198989999999}, "7025 Millcreek Dr , Mississauga, Ontario": {"name": "Esso", "type_A": 122.9, "type_B": 135.9, "type_C": 141.9, "address": "7025 Millcreek Dr, Mississauga, ON L5N 3R3, Canada", "longitude": -79.76167439999999, "latitude": 43.5976404}, "6536 Winston Churchill Blvd , Mississauga, Ontario": {"name": "Petro-Canada", "type_A": 122.9, "type_B": 132.9, "type_C": 138.9, "address": "6536 Winston Churchill Blvd, Mississauga, ON L5N 4E3, Canada", "longitude": -79.7587296, "latitude": 43.5787415}, "1990 Hallstone Rd , Brampton, Ontario": {"name": "Petro-Canada", "type_A": 122.9, "type_B": 134.9, "type_C": 140.9, "type_D": 118.9, "address": "1990 Hallstone Rd, Brampton, ON L6Y 0L7, Canada", "longitude": -79.7676023, "latitude": 43.6218869}, "2980 Argentia Rd , Mississauga, Ontario": {"name": "Esso", "type_B": 132.9, "type_C": 138.9, "type_D": 118.9, "type_A": 122.9, "address": "2980 Argentia Rd, Mississauga, ON L5N 8C5, Canada", "longitude": -79.7831514, "latitude": 43.5974137}, "7965 Financial Dr , Brampton, Ontario": {"name": "Petro-Canada", "type_B": 134.9, "type_C": 140.9, "type_D": 118.9, "type_A": 122.9, "address": "7965 Financial Dr, Brampton, ON L6Y 0B4, Canada", "longitude": -79.7697713, "latitude": 43.6320756}, "1990 Steeles Ave W , Brampton, Ontario": {"name": "Esso", "type_D": 118.9, "type_A": 122.9, "type_B": 134.6, "type_C": 140.9, "address": "1990 Steeles Ave W, Brampton, ON L6Y 0R4, Canada", "longitude": -79.7759232, "latitude": 43.6281873}, "7540 Winston Churchill Blvd , Mississauga, Ontario": {"name": "Shell", "type_D": 118.9, "type_A": 122.9, "type_B": 131.9, "type_C": 141.9, "address": "7540 Winston Churchill Blvd, Mississauga, ON L5N, Canada", "longitude": -79.7855973, "latitude": 43.5983107}, "6004 Trafalgar Rd , Milton, Ontario": {"name": "Petro-Canada", "type_B": 135.9, "type_C": 141.9, "type_A": 120.9, "address": "6004 Trafalgar Rd, Hornby, ON L0P 1E0, Canada", "longitude": -79.78162780000001, "latitude": 43.5355666}, "345A Queen St W , Brampton, Ontario": {"name": "Husky", "type_D": 118.7, "type_A": 120.7, "address": "345A Queen St W, Brampton, ON L6Y 3B2, Canada", "longitude": -79.76995959999999, "latitude": 43.6760271}, "10980 Bramalea Rd , Brampton, Ontario": {"name": "Mac's", "type_A": 117.6, "type_B": 129.6, "type_C": 136.6, "type_D": 114.6, "address": "10980 Bramalea Rd, Brampton, ON L6R, Canada", "longitude": -79.7701099, "latitude": 43.7635759}, "10115 Bramalea Rd , Brampton, Ontario": {"name": "Petro-Canada", "type_A": 117.9, "type_B": 133.9, "type_C": 139.9, "type_D": 120.9, "address": "10115 Bramalea Rd, Brampton, ON L6R 1W6, Canada", "longitude": -79.7472607, "latitude": 43.7472528}, "10511 Bramalea Rd , Brampton, Ontario": {"name": "Shell", "type_A": 117.9, "type_B": 131.9, "type_C": 139.9, "type_D": 118.9, "address": "10511 Bramalea Rd, Brampton, ON L6r 3p4, Canada", "longitude": -79.7574593, "latitude": 43.754753}, "490 Great Lakes Dr , Brampton, ON, Ontario": {"name": "Shell", "type_A": 118.9, "type_B": 132.9, "type_C": 140.9, "type_D": 118.9, "address": "490 Great Lakes Dr, Brampton, ON L6R, Canada", "longitude": -79.7736453, "latitude": 43.7408885}, "620 Peter Robertson Blvd , Brampton, Ontario": {"name": "Esso", "type_A": 118.9, "type_C": 136.9, "address": "620 Peter Robertson Blvd, Brampton, ON L6R 1T5, Canada", "longitude": -79.76019, "latitude": 43.739281}, "490 Great Lakes Dr , Brampton, Ontario": {"name": "Shell", "type_A": 118.9, "type_B": 132.9, "type_C": 140.9, "type_D": 118.9, "address": "490 Great Lakes Dr, Brampton, ON L6R, Canada", "longitude": -79.7736453, "latitude": 43.7408885}, "10561 Heart Lake Rd , Brampton, Ontario": {"name": "Petro-Canada", "type_A": 118.9, "type_B": 132.9, "type_C": 138.9, "address": "10561 Heart Lake Rd, Brampton, ON L6Z 0B6, Canada", "longitude": -79.7798901, "latitude": 43.7361868}, "10606 Heart Lake Rd , Brampton, Ontario": {"name": "Esso", "type_A": 118.9, "type_B": 132.9, "type_C": 138.9, "address": "10606 Heart Lake Rd, Brampton, ON L6Z 0B3, Canada", "longitude": -79.7815809, "latitude": 43.7363266}, "2985 Sandalwood Pkwy E , Brampton, Ontario": {"name": "Petro-Canada", "type_A": 119.6, "type_B": 133.9, "type_C": 139.9, "address": "2985 Sandalwood Pkwy E, Brampton, ON L6R 3J6, Canada", "longitude": -79.73062999999999, "latitude": 43.7684053}, "43 Mountainash Rd , Brampton, Ontario": {"name": "Esso", "type_A": 119.9, "type_B": 132.9, "type_C": 138.9, "type_D": 119.9, "address": "43 Mountainash Rd, Brampton, ON L6R 1W4, Canada", "longitude": -79.7303171, "latitude": 43.75847359999999}, "5981 Mayfield Rd , Brampton, Ontario": {"name": "Esso", "type_A": 120.6, "type_B": 133.9, "type_C": 139.9, "type_D": 118.9, "address": "5981 Mayfield Rd, Brampton, ON L6R 0A8, Canada", "longitude": -79.7602055, "latitude": 43.7906162}, "12016 Airport Rd , Caledon, Ontario": {"name": "Shell", "type_A": 120.6, "type_B": 135.9, "type_C": 139.9, "type_D": 118.9, "address": "12016 Airport Rd, Caledon, ON L7C 2W1, Canada", "longitude": -79.7608869, "latitude": 43.79128559999999}, "12476 Hwy 50 , Caledon, Ontario": {"name": "Husky", "type_A": 120.9, "type_B": 130.9, "type_C": 137.9, "type_D": 113.7, "address": "12476 Hwy 50, Bolton, ON L7E 1M7, Canada", "longitude": -79.70806300000001, "latitude": 43.85723050000001}, "140 Father Tobin Rd , Brampton, Ontario": {"name": "7-Eleven", "type_A": 122.6, "type_D": 114.6, "address": "140 Father Tobin Rd, Brampton, ON L6R 0J2, Canada", "longitude": -79.7563634, "latitude": 43.7717446}, "9878 Dixie Rd , Brampton, Ontario": {"name": "Petro-Canada", "type_A": 122.9, "type_B": 131.9, "type_C": 137.9, "address": "9878 Dixie Rd, Brampton, ON L6S 5W4, Canada", "longitude": -79.7483252, "latitude": 43.7293643}, "5 Great Lakes Dr , Brampton, Ontario": {"name": "Shell", "type_A": 122.9, "type_B": 132.9, "type_C": 140.9, "type_D": 118.9, "address": "5 Great Lakes Dr, Brampton, ON L6R 2S5, Canada", "longitude": -79.7598744, "latitude": 43.7308986}, "99 McEwan Dr E , Caledon, Ontario": {"name": "Canadian Tire", "type_B": 128.1, "type_C": 136.1, "type_D": 118.3, "address": "99 McEwan Dr E, Bolton, ON L7E 2Z7, Canada", "longitude": -79.7098788, "latitude": 43.8618146}, "10187 Kennedy Rd N , Brampton, Ontario": {"name": "Mac's", "type_B": 128.2, "type_C": 135.2, "type_D": 114.9, "type_A": 116.2, "address": "10187 Kennedy Rd N, Brampton, ON L6Z 0C5, Canada", "longitude": -79.7813803, "latitude": 43.7198657}, "281 Richvale Dr S , Brampton, Ontario": {"name": "Esso", "type_B": 129.9, "type_C": 135.9, "type_D": 119.9, "type_A": 116.2, "address": "281 Richvale Dr S, Brampton, ON L6Z 4W5, Canada", "longitude": -79.7729736, "latitude": 43.7197105}, "200 Sandalwood Pkwy E , Brampton, Ontario": {"name": "Petro-Canada", "type_B": 131.9, "type_A": 118.9, "type_C": 137.9, "address": "200 Sandalwood Pkwy E, Brampton, ON L6Z 1Y5, Canada", "longitude": -79.79401589999999, "latitude": 43.7280297}, "10178 Hurontario St , Brampton, Ontario": {"name": "Shell", "type_D": 119.9, "type_A": 122.9, "type_B": 135.5, "type_C": 143.5, "address": "10178 Hurontario St, Brampton, ON L7A 0E4, Canada", "longitude": -79.7922961, "latitude": 43.7089456}, "675 Main St N , Brampton, Ontario": {"name": "Pioneer", "type_D": 119.9, "type_A": 122.6, "type_B": 131.9, "type_C": 139.4, "address": "675 Main St N, Brampton, ON L6X 0G6, Canada", "longitude": -79.7866343, "latitude": 43.7051512}, "9 Bovaird Dr E , Brampton, Ontario": {"name": "Esso", "type_D": 120.9, "type_A": 122.9, "type_B": 130.9, "type_C": 136.9, "address": "9 Bovaird Dr E, Brampton, ON L6V 0A2, Canada", "longitude": -79.7861487, "latitude": 43.7058755}, " 12731 Hwy 48   , Whitchurch-Stouffville, Ontario": {"name": "Ultramar", "type_A": 115.6, "type_B": 129.6, "type_C": 132.6, "type_D": 115.9, "address": "12731 ON-48, Whitchurch-Stouffville, ON L4A 7X3, Canada", "longitude": -79.282378, "latitude": 43.9763464}, "5946 Main St , Whitchurch-Stouffville, Ontario": {"name": "Mac's", "type_A": 116.9, "type_B": 126.9, "address": "5946 Main St, Whitchurch-Stouffville, ON L4A 3A1, Canada", "longitude": -79.2580803, "latitude": 43.9691744}, "5842 Main St Stouffville , Whitchurch-Stouffville, Ontario": {"name": "Shell", "type_A": 116.9, "type_B": 130.9, "type_D": 116.9, "address": "5842 Main St, Whitchurch-Stouffville, ON L4A 2S8, Canada", "longitude": -79.2609864, "latitude": 43.9684268}, "2329 Stouffville Rd , Whitchurch-Stouffville, Ontario": {"name": "Petro-Canada", "type_A": 118.9, "address": "2329 Stouffville Rd, Gormley, ON L0H 1G0, Canada", "longitude": -79.3786977, "latitude": 43.9416068}, "12264 10th Line , Whitchurch-Stouffville, Ontario": {"name": "Petro-Canada", "type_A": 122.9, "type_B": 132.9, "type_C": 142.9, "type_D": 124.9, "address": "12264 Tenth Line, Whitchurch-Stouffville, ON L4A 7W6, Canada", "longitude": -79.2317789, "latitude": 43.9751436}, "5241 Bloomington Rd  , Whitchurch-Stouffville, Ontario": {"name": "Esso", "type_D": 118.9, "type_A": 118.5, "address": "5241 Bloomington Rd, Whitchurch-Stouffville, ON L4A 7X3, Canada", "longitude": -79.2902493, "latitude": 43.999884}, "7500 Trafalgar Rd , Milton, Ontario": {"name": "Esso", "type_D": 119.9, "type_B": 132.9, "type_C": 139.9, "address": "7500 Trafalgar Rd, Milton, ON L9T 7V9, Canada", "longitude": -79.82627350000001, "latitude": 43.5686786}, "12717 Woodbine Ave , Whitchurch-Stouffville, Ontario": {"name": "Esso", "type_A": 119.9, "address": "12717 Woodbine Ave, Gormley, ON L0H 1G0, Canada", "longitude": -79.3804775, "latitude": 43.9535104}, "10021 McLaughlin Rd , Brampton, Ontario": {"name": "Canadian Tire", "type_A": 122.7, "type_B": 125.9, "type_C": 137.9, "type_D": 118.1, "address": "10021 McLaughlin Rd, Brampton, ON L7A 2X5, Canada", "longitude": -79.797691, "latitude": 43.69680899999999}, "9950 McLaughlin Rd , Brampton, Ontario": {"name": "Husky", "type_A": 122.7, "type_B": 126.9, "type_C": 133.9, "address": "9950 McLaughlin Rd N, Brampton, ON L6X 5C7, Canada", "longitude": -79.79749369999999, "latitude": 43.6952899}, "504 Main St N , Brampton, Ontario": {"name": "Petro-Canada", "type_A": 122.9, "type_B": 131.9, "type_C": 137.9, "type_D": 120.9, "address": "504 Main St N, Brampton, ON L6V 1P9, Canada", "longitude": -79.7773627, "latitude": 43.6994848}, "9800 Chinguacousy Rd , Brampton, Ontario": {"name": "Esso", "type_A": 122.9, "address": "9800 Chinguacousy Rd, Brampton, ON L6X 5E9, Canada", "longitude": -79.8032711, "latitude": 43.6818912}, "10010 McLaughlin Rd N , Brampton, Ontario": {"name": "Esso", "type_A": 122.9, "type_B": 130.9, "type_C": 136.9, "address": "10010 McLaughlin Rd N, Brampton, ON L7A 2X6, Canada", "longitude": -79.7984401, "latitude": 43.6958598}, "121 Kennedy Rd N , Brampton, Ontario": {"name": "Petro-Canada", "type_A": 122.9, "type_B": 135.9, "type_C": 141.9, "address": "121 Kennedy Rd N, Brampton, ON L6V 1X7, Canada", "longitude": -79.7587865, "latitude": 43.7022149}, "140 Kennedy Rd N , Brampton, Ontario": {"name": "Esso", "type_A": 122.9, "type_B": 135.9, "type_C": 141.9, "address": "140 Kennedy Rd N, Brampton, ON L6V 2N4, Canada", "longitude": -79.7587927, "latitude": 43.70319260000001}, "9981 Chinguacousy Rd , Brampton, Ontario": {"name": "Petro-Canada", "type_B": 131.9, "type_C": 137.9, "type_A": 122.9, "address": "9981 Chinguacousy Rd, Brampton, ON L6X 0E8, Canada", "longitude": -79.8075355, "latitude": 43.6863245}, "9950 Chinguacousy Rd , Brampton, Ontario": {"name": "Shell", "type_C": 142.9, "type_D": 118.9, "type_A": 122.9, "type_B": 134.9, "address": "9950 Chinguacousy Rd, Brampton, ON L6X 4W2, Canada", "longitude": -79.8084677, "latitude": 43.6854534}, "10 Brisdale Dr , Brampton, Ontario": {"name": "Fortinos", "type_D": 111.6, "type_A": 118.2, "type_B": 129.4, "type_C": 136.4, "address": "10 Brisdale Dr, Brampton, ON L7A 2G8, Canada", "longitude": -79.81231919999999, "latitude": 43.6830606}, "6980 Lisgar Dr , Mississauga, Ontario": {"name": "7-Eleven", "type_A": 118.6, "address": "6980 Lisgar Dr, Mississauga, ON L5N 8C8, Canada", "longitude": -79.7838261, "latitude": 43.5763893}, "9980 Mississauga Rd , Brampton, Ontario": {"name": "Petro-Canada", "type_A": 122.7, "type_B": 132.9, "type_C": 138.9, "type_D": 120.9, "address": "9980 Mississauga Rd, Brampton, ON L6X 0B5, Canada", "longitude": -79.82956399999999, "latitude": 43.66631599999999}, "10601 Chinguacousy  Rd , Brampton, Ontario": {"name": "Mac's", "type_D": 111.6, "type_A": 122.6, "type_B": 129.2, "type_C": 136.2, "address": "10601 Chinguacousy Rd, Brampton, ON L7A 0N5, Canada", "longitude": -79.8228307, "latitude": 43.6973528}, "375 Guelph St , Halton Hills, Ontario": {"name": "Esso", "type_D": 119.9, "address": "375 Guelph St, Georgetown, ON L7G 4B6, Canada", "longitude": -79.877743, "latitude": 43.6495942}, "375 Mountainview Rd S , Halton Hills, Ontario": {"name": "Petro-Canada", "type_D": 120.9, "address": "375 Mountainview Rd S, Georgetown, ON L7G 5X3, Canada", "longitude": -79.87590220000001, "latitude": 43.63051670000001}, "230 Wanless Dr , Brampton, Ontario": {"name": "Mac's", "type_A": 115.9, "type_B": 134.2, "type_C": 141.2, "type_D": 114.9, "address": "230 Wanless Dr, Brampton, ON L7A 3K4, Canada", "longitude": -79.8155221, "latitude": 43.7256685}, "11865 Hurontario St , Brampton, Ontario": {"name": "Santak Pump", "type_A": 116.5, "type_B": 123.9, "type_C": 133.9, "type_D": 116.9, "address": "11865 Hurontario St, Brampton, ON L6Z 4P7, Canada", "longitude": -79.823239, "latitude": 43.7329549}, "5 Sandalwood Pkwy W , Brampton, Ontario": {"name": "Petro-Canada", "type_A": 122.9, "type_B": 130.9, "type_C": 136.9, "address": "5 Sandalwood Pkwy W, Brampton, ON L6Z 4S3, Canada", "longitude": -79.8031786, "latitude": 43.7170548}, "12011 Hurontario St , Brampton, Ontario": {"name": "Petro-Canada", "type_B": 129.9, "type_C": 135.9, "type_D": 125.9, "type_A": 122.9, "address": "12011 Hurontario St, Brampton, ON L6Z 4P8, Canada", "longitude": -79.8250511, "latitude": 43.7342665}, "11980 Hurontario St , Brampton, Ontario": {"name": "Petro-Canada", "type_B": 129.9, "type_C": 135.9, "type_D": 120.9, "type_A": 122.9, "address": "11980 Hurontario St, Brampton, ON L7A 1E6, Canada", "longitude": -79.82481159999999, "latitude": 43.7330718}, "7975 Trafalgar Rd , Halton Hills, Ontario": {"name": "Shell", "type_D": 119.9, "address": "7975 Trafalgar Rd, Halton Hills, ON L0P 1E0, Canada", "longitude": -79.8337627, "latitude": 43.5746997}, "150 Kingston Rd E , Ajax, Ontario": {"name": "Costco", "type_A": 110.9, "type_C": 122.9, "address": "150 Kingston Rd E, Ajax, ON L1Z 0C7, Canada", "longitude": -79.0184539, "latitude": 43.86294970000001}, "10 Station St , Ajax, Ontario": {"name": "Shell", "type_A": 112.9, "type_B": 132.9, "type_C": 140.9, "type_D": 122.9, "address": "10 Station St, Ajax, ON L1S 1R9, Canada", "longitude": -79.0222625, "latitude": 43.85174}, "290 Rossland Rd E , Ajax, Ontario": {"name": "Esso", "type_A": 113.2, "type_B": 126.9, "type_C": 132.9, "type_D": 118.9, "address": "290 Rossland Rd E, Ajax, ON L1Z 0K4, Canada", "longitude": -79.019485, "latitude": 43.8821302}, "2 Westney Rd S , Ajax, Ontario": {"name": "Shell", "type_A": 113.3, "type_B": 126.9, "type_C": 134.9, "address": "2 Westney Rd S, Ajax, ON L1S 5L7, Canada", "longitude": -79.0422461, "latitude": 43.8570505}, "130 Rossland Rd W , Ajax, Ontario": {"name": "7-Eleven", "type_A": 113.6, "type_C": 128.9, "address": "130 Rossland Rd W, Ajax, ON L1T 4N6, Canada", "longitude": -79.0439427, "latitude": 43.8761348}, "211 Bayly St E , Ajax, Ontario": {"name": "Esso", "type_A": 113.6, "type_B": 128.9, "type_C": 138.9, "type_D": 119.9, "address": "211 Bayly St E, Ajax, ON L1S 7T6, Canada", "longitude": -79.0067124, "latitude": 43.8465598}, "1 Westney Rd N , Ajax, Ontario": {"name": "Petro-Canada", "type_A": 113.6, "type_B": 126.9, "type_C": 132.9, "address": "1 Westney Rd N, Ajax, ON L1T 1P4, Canada", "longitude": -79.0412386, "latitude": 43.85815669999999}, "115 Salem Rd S , Ajax, Ontario": {"name": "Shell", "type_A": 113.6, "type_B": 126.9, "type_C": 132.9, "type_D": 119.9, "address": "115 Salem Rd S, Ajax, ON L1Z 2C9, Canada", "longitude": -79.0140562, "latitude": 43.8600473}, "999 Harwood Ave N , Ajax, Ontario": {"name": "Shell", "type_A": 113.9, "type_B": 128.9, "type_C": 136.9, "type_D": 118.9, "address": "999 Harwood Ave N, Ajax, ON L1Z 1Y7, Canada", "longitude": -79.0260017, "latitude": 43.87952079999999}, "1 Harwood Ave S , Ajax, Ontario": {"name": "Pioneer", "type_A": 122.6, "type_B": 123.4, "type_C": 130.9, "type_D": 118.6, "address": "1 Harwood Ave S, Ajax, ON L1S 2C1, Canada", "longitude": -79.0251004, "latitude": 43.8610274}, "460 Bayly St W , Ajax, Ontario": {"name": "Esso", "type_A": 122.9, "type_B": 128.9, "type_C": 135.9, "type_D": 119.9, "address": "460 Bayly St W, Ajax, ON L1S 1P1, Canada", "longitude": -79.0349538, "latitude": 43.84087539999999}, "158 Hunt St , Ajax, Ontario": {"name": "Falcon", "type_A": 122.9, "type_B": 143.9, "type_C": 148.9, "type_D": 120.9, "address": "158 Hunt St, Ajax, ON L1S 1P5, Canada", "longitude": -79.025621, "latitude": 43.8465867}, "8 Kingston Rd E , Ajax, Ontario": {"name": "Esso", "type_A": 122.9, "type_B": 128.9, "type_C": 135.9, "address": "8 Kingston Rd E, Ajax, ON L1T 4W4, Canada", "longitude": -79.02538, "latitude": 43.861894}, "2 Salem Rd S , Ajax, Ontario": {"name": "Petro-Canada", "type_A": 122.9, "type_B": 124.9, "type_C": 132.9, "type_D": 120.9, "address": "2 Salem Rd S, Ajax, ON L1S 7T7, Canada", "longitude": -79.0165536, "latitude": 43.8628559}, "201 Taunton Rd W , Ajax, Ontario": {"name": "Petro-Canada", "type_A": 122.9, "type_B": 129.9, "type_C": 139.9, "type_D": 118.9, "address": "201 Taunton Rd W, Ajax, ON L1T 4W9, Canada", "longitude": -79.0510145, "latitude": 43.8925916}, "225 Salem Rd S , Ajax, Ontario": {"name": "Petro-Canada", "type_A": 122.9, "type_B": 126.9, "type_C": 132.9, "type_D": 120.9, "address": "225 Salem Rd S, Ajax, ON L1Z 0B1, Canada", "longitude": -79.0084832, "latitude": 43.8531418}, "1991 Salem Rd N , Ajax, Ontario": {"name": "Shell", "type_B": 127.9, "type_C": 135.9, "type_D": 119.9, "address": "1991 Salem Rd N, Ajax, ON L1T 4V4, Canada", "longitude": -79.02971649999999, "latitude": 43.8978204}, "2250 Hwy 7 , Pickering, Ontario": {"name": "Esso", "type_D": 121.9, "address": "2250 ON-7, Greenwood, ON L0H 1H0, Canada", "longitude": -79.0780947, "latitude": 43.9261661}, "13735 Bathurst St , Richmond Hill, Ontario": {"name": "Esso", "type_A": 116.9, "address": "13735 Bathurst St, Richmond Hill, ON L4E 3Z1, Canada", "longitude": -79.4849337, "latitude": 43.9571197}, "1494 Wellington St W , King Township, Ontario": {"name": "Pioneer", "type_A": 114.6, "address": "1494 Wellington St W, King City, ON L7B 1K5, Canada", "longitude": -79.5173621, "latitude": 43.9894675}, "16634 Yonge St , Newmarket, Ontario": {"name": "Shell", "type_A": 117.9, "address": "16634 Yonge St, Newmarket, ON L3X 2N8, Canada", "longitude": -79.4758427, "latitude": 44.0330535}, "16995 Yonge St , Newmarket, Ontario": {"name": "Amco", "type_A": 118.9, "type_D": 119.9, "address": "16995 Yonge St, Newmarket, ON L3Y 5Y1, Canada", "longitude": -79.47697409999999, "latitude": 44.0424914}, "15255 Leslie St , Aurora, Ontario": {"name": "Ultramar", "type_A": 119.4, "type_B": 132.4, "type_C": 135.4, "type_D": 118.9, "address": "15255 Leslie St, Aurora, ON L4G 7C7, Canada", "longitude": -79.4183255, "latitude": 44.0112972}, "15228 Woodbine Ave , Whitchurch-Stouffville, Ontario": {"name": "Petro-Canada", "type_A": 119.9, "address": "15228 Woodbine Ave, Whitchurch-Stouffville, ON L0H 1G0, Canada", "longitude": -79.3956779, "latitude": 44.0153483}, "1501 Wellington St E , Aurora, Ontario": {"name": "Shell", "type_A": 120.9, "type_B": 130.9, "type_C": 138.9, "type_D": 118.9, "address": "1501 Wellington St E, Aurora, ON L4G 7B8, Canada", "longitude": -79.41777130000001, "latitude": 44.010604}, "1472 Wellington St E , Aurora, Ontario": {"name": "Esso", "type_A": 121.4, "type_B": 129.9, "type_C": 135.9, "type_D": 118.9, "address": "1472 Wellington St E, Aurora, ON L4G 7B7, Canada", "longitude": -79.4194977, "latitude": 44.0110445}, "14923 Yonge St , Aurora, Ontario": {"name": "Esso", "type_A": 122.9, "type_B": 135.9, "address": "14923 Yonge St, Aurora, ON L4G 1M8, Canada", "longitude": -79.4653125, "latitude": 43.9918445}, "14721 Yonge St , Aurora, Ontario": {"name": "Canadian Tire", "type_A": 122.9, "type_B": 132.9, "address": "14721 Yonge St, Aurora, ON L4G 1N1, Canada", "longitude": -79.4638626, "latitude": 43.987063}, "540 Mulock Dr , Newmarket, Ontario": {"name": "Petro-Canada", "type_A": 122.9, "address": "540 Mulock Dr, Newmarket, ON L3Y 8R9, Canada", "longitude": -79.4513884, "latitude": 44.0409412}, "250 Mulock Dr , Newmarket, Ontario": {"name": "Petro-Canada", "type_A": 122.9, "address": "250 Mulock Dr, Newmarket, ON L3Y 9B8, Canada", "longitude": -79.4645123, "latitude": 44.0385384}, "15440 Yonge St , Aurora, Ontario": {"name": "Petro-Canada", "type_A": 122.9, "type_B": 134.9, "address": "15440 Yonge St, Aurora, ON L4G 1P2, Canada", "longitude": -79.4693343, "latitude": 44.0042633}, "1515 King Rd , King Township, Ontario": {"name": "Esso", "type_A": 122.9, "address": "1515 King Rd, King City, ON L7B 1L4, Canada", "longitude": -79.5054061, "latitude": 43.9335998}, "17740 Yonge St , Newmarket, Ontario": {"name": "Canadian Tire", "type_B": 124.3, "type_C": 129.3, "type_A": 113.9, "address": "17740 Yonge St, Newmarket, ON L3Y 8P4, Canada", "longitude": -79.4828977, "latitude": 44.0595307}, "17111 Yonge St , Newmarket, Ontario": {"name": "Petro-Canada", "type_B": 130.9, "type_C": 136.9, "type_A": 117.9, "address": "17111 Yonge St, Newmarket, ON L3Y 4V7, Canada", "longitude": -79.4776617, "latitude": 44.0452069}, "1144 Davis Dr , Newmarket, Ontario": {"name": "Esso", "type_B": 134.9, "type_C": 140.9, "type_D": 119.9, "address": "1144 Davis Dr, Newmarket, ON L3Y 8X4, Canada", "longitude": -79.42916509999999, "latitude": 44.0660046}, "1195 Davis Dr , Newmarket, Ontario": {"name": "Petro-Canada", "type_C": 135.9, "type_D": 121.9, "type_B": 129.9, "address": "1195 Davis Dr, Newmarket, ON L3Y 8R1, Canada", "longitude": -79.42686379999999, "latitude": 44.0673094}, "17551 Woodbine Ave , East Gwillimbury, Ontario": {"name": "Esso", "type_D": 123.9, "type_B": 135.9, "type_C": 141.9, "address": "17551 Woodbine Ave, East Gwillimbury, ON L9N 0L6, Canada", "longitude": -79.4074189, "latitude": 44.0720165}, "645 Third Line  , Oakville, Ontario": {"name": "Shell ", "type_A": 117.9, "type_C": 142.9, "address": "645 Third Line, Oakville, ON L6L 4A9, Canada", "longitude": -79.7175022, "latitude": 43.4192341}, "587 Third Line , Oakville, Ontario": {"name": "Petro-Canada", "type_A": 118.3, "type_B": 133.3, "type_C": 139.3, "address": "587 Third Line, Oakville, ON L6L 4A8, Canada", "longitude": -79.71572499999999, "latitude": 43.417945}, "2383 Dundas St W , Oakville, Ontario": {"name": "Econo", "type_A": 118.9, "address": "2383 Dundas St W, Oakville, ON L6M 4J3, Canada", "longitude": -79.77232769999999, "latitude": 43.44014990000001}, "1550 North Service Rd W , Oakville, Ontario": {"name": "Petro-Canada", "type_A": 121.9, "address": "1550 North Service Rd W, Oakville, ON L6M 4A1, Canada", "longitude": -79.7274755, "latitude": 43.42662989999999}, "2267 Lakeshore Rd W , Oakville, Ontario": {"name": "7-Eleven", "type_B": 129.6, "type_C": 136.6, "address": "2267 Lakeshore Rd W, Oakville, ON L6L 1H1, Canada", "longitude": -79.7069015, "latitude": 43.3993703}, "620 Thompson Rd S , Milton, Ontario": {"name": "Petro-Canada", "type_B": 135.9, "type_D": 120.9, "address": "620 Thompson Rd S, Milton, ON L9T 0H1, Canada", "longitude": -79.8508427, "latitude": 43.51555680000001}, "4499 Mainway , Burlington, Ontario": {"name": "Pioneer", "type_D": 118.5, "address": "4499 Mainway, Burlington, ON L7L 7P3, Canada", "longitude": -79.7820031, "latitude": 43.3872484}, "120 Thompson Rd S , Milton, Ontario": {"name": "[email\u00a0protected]", "type_D": 118.6, "address": "120 Thompson Rd S, Milton, ON L9T 0J4, Canada", "longitude": -79.86473389999999, "latitude": 43.5260293}, "3451 Rebecca St , Oakville, Ontario": {"name": "Shell", "type_D": 118.9, "address": "3451 Rebecca St, Oakville, ON L6L 6W2, Canada", "longitude": -79.73518419999999, "latitude": 43.3847459}, "1515 Main St E , Milton, Ontario": {"name": "Esso", "type_D": 119.9, "address": "1515 Main St E, Milton, ON L9T 0R3, Canada", "longitude": -79.85633539999999, "latitude": 43.53866259999999}, "6788 Regional Rd 25 , Milton, Ontario": {"name": "Esso", "type_D": 119.9, "address": "6788 Regional Rd 25, Milton, ON L9T 2X5, Canada", "longitude": -79.86148299999999, "latitude": 43.5058744}, "4525 Dundas St , Burlington, Ontario": {"name": "Petro-Canada", "type_D": 119.9, "address": "4525 Dundas St, Burlington, ON L7M 5B4, Canada", "longitude": -79.808832, "latitude": 43.4065054}, "10862 Steeles Ave , Milton, Ontario": {"name": "Truck Town Terminals", "type_D": 121.9, "address": "10862 Steeles Ave E, Milton, ON L9T 6R1, Canada", "longitude": -79.86351239999999, "latitude": 43.5469452}, "5267 Aurora Rd , Whitchurch-Stouffville, Ontario": {"name": "Ultramar", "type_A": 115.6, "type_D": 117.9, "address": "5267 Aurora Rd, Whitchurch-Stouffville, ON L4A 7X4, Canada", "longitude": -79.2967076, "latitude": 44.0376786}, "15641 Hwy 48 , Whitchurch-Stouffville, Ontario": {"name": "Pioneer", "type_A": 115.6, "type_B": 126.4, "type_C": 133.9, "type_D": 117.9, "address": "15641 ON-48, Whitchurch-Stouffville, ON L4A 7X4, Canada", "longitude": -79.2993065, "latitude": 44.0475229}, "5272 Aurora Rd , Whitchurch-Stouffville, Ontario": {"name": "Global", "type_A": 117.6, "type_D": 115.9, "address": "5272 Aurora Rd, Whitchurch-Stouffville, ON L4A 7X4, Canada", "longitude": -79.2966524, "latitude": 44.038325}, "4029 Brock Rd , Uxbridge, Ontario": {"name": "Shell", "type_D": 121.9, "address": "4029 Brock Rd, Uxbridge, ON L9P 1R4, Canada", "longitude": -79.1468823, "latitude": 44.04597560000001}, "18080 Yonge St , Newmarket, Ontario": {"name": "Husky", "type_A": 113.3, "address": "18080 Yonge St, Newmarket, ON L3Y 8V1, Canada", "longitude": -79.48424659999999, "latitude": 44.0681374}, "18182 Yonge St , East Gwillimbury, Ontario": {"name": "Costco", "type_A": 114.9, "type_C": 126.9, "address": "18182 Yonge St, East Gwillimbury, ON L9N 0J3, Canada", "longitude": -79.48942930000001, "latitude": 44.07118980000001}, "17145 Yonge St , Newmarket, Ontario": {"name": "Esso", "type_A": 117.9, "address": "17145 Yonge St, Newmarket, ON L3Y 5L8, Canada", "longitude": -79.477766, "latitude": 44.0459699}, "65 Dillane Dr , Schomberg, Ontario": {"name": "Petro-Canada", "type_A": 118.9, "type_B": 131.9, "type_C": 137.9, "address": "65 Dillane Dr, Schomberg, ON L0G 1T0, Canada", "longitude": -79.6764544, "latitude": 44.0053511}, "5964 Hwy 9 , New Tecumseth, Ontario": {"name": "Shell", "type_A": 119.9, "type_D": 123.9, "address": "5964 ON-9, Schomberg, ON L0G 1T0, Canada", "longitude": -79.6780303, "latitude": 44.0117758}, "18263 Yonge St , East Gwillimbury, Ontario": {"name": "Shell", "type_A": 122.6, "type_B": 129.9, "type_C": 137.9, "type_D": 118.6, "address": "18263 Yonge St, East Gwillimbury, ON L9N 0J1, Canada", "longitude": -79.4844978, "latitude": 44.073294}, "18215 Yonge St , East Gwillimbury, Ontario": {"name": "Petro-Canada", "type_A": 122.9, "type_D": 122.9, "address": "18215 Yonge St, East Gwillimbury, ON L9N 0H9, Canada", "longitude": -79.4840108, "latitude": 44.0726535}, "1175 Mulock Dr , Newmarket, Ontario": {"name": "Esso", "type_A": 122.9, "address": "1175 Mulock Dr, Newmarket, ON L3Y 8E6, Canada", "longitude": -79.4214642, "latitude": 44.0492401}, "12996 Hwy 27 , King Township, Ontario": {"name": "Petro-Canada", "type_A": 122.9, "address": "12996 York Regional Rd 27, King City, ON L7B 1K4, Canada", "longitude": -79.6519855, "latitude": 43.8991497}, "18233 Leslie St , East Gwillimbury, Ontario": {"name": "Shell", "type_B": 128.9, "type_C": 136.9, "type_D": 118.9, "address": "18233 Leslie St, Newmarket, ON L3Y 9A5, Canada", "longitude": -79.4363601, "latitude": 44.08349380000001}, "3479 Simcoe Rd 88 , Bradford West Gwillimbury, Ontario": {"name": "Husky", "type_B": 131.9, "type_C": 138.9, "type_D": 116.9, "address": "3479 Simcoe County Rd 88, Bradford, ON L3Z 2A5, Canada", "longitude": -79.6249399, "latitude": 44.1008158}, "22 Bridge St , Bradford West Gwillimbury, Ontario": {"name": "Pioneer", "type_D": 118.3, "address": "22 Bridge St, Bradford, ON L3Z 3H2, Canada", "longitude": -79.55659709999999, "latitude": 44.1157864}, "18273 Leslie St , East Gwillimbury, Ontario": {"name": "Esso", "type_D": 118.9, "address": "18273 Leslie St, Sharon, ON L0G 1V0, Canada", "longitude": -79.4362063, "latitude": 44.0846914}, "412 Holland St W , Bradford West Gwillimbury, Ontario": {"name": "Shell", "type_D": 118.9, "address": "412 Holland St W, Bradford West Gwillimbury, ON L3Z 2A4, Canada", "longitude": -79.5809584, "latitude": 44.1103001}, "430 Holland St West , Bradford, Ontario": {"name": "Canadian Tire", "type_D": 118.9, "address": "430 Holland St W, Bradford, ON L3Z 2A4, Canada", "longitude": -79.5831357, "latitude": 44.10896229999999}, "577 Holland St W , Bradford West Gwillimbury, Ontario": {"name": "Petro-Canada", "type_D": 121.9, "address": "577 Holland St W, Bradford, ON L3Z 2A4, Canada", "longitude": -79.6012338, "latitude": 44.1065535}}